stop_id,stop_name,served_lines,accessible_pmr,has_elevator,has_escalator,address,city,insee,zone,lon,lat
1,24 Août,"87:A,ZI1:A",True,False,False,9 AVENUE DU 24 AOUT 1944,Corbas,69273.0,1,4.909324275377,45.682868740966
1000,Garanjou,C7:R,True,False,False,61 RUE AMPERE,Oullins-Pierre-Bénite,69149.0,1,4.816354044796,45.70521531129
10006,Curie - Jules Guesde,"39:A,JD133:R",True,False,False,100 AVENUE JULES GUESDE,Vénissieux,69259.0,1,4.887283956869,45.70924804158
10007,Curie - Jules Guesde,"39:R,JD133:A",True,False,False,109 AVENUE JULES GUESDE,Vénissieux,69259.0,1,4.887365859502,45.709249329708
10008,Pont de l'Université,JD972:R,True,False,False,22 QUAI DOCTEUR GAILLETON,Lyon 2e Arrondissement,69382.0,1,4.834585243243,45.753975904882
1001,Garantèze,"15:A,18:A,JD267:R",True,False,False,41 RUE DAISY GEORGES MARTIN,Irigny,69100.0,1,4.825549329165,45.678449890299
10012,Pressensé - Marrane,35:A,True,False,False,130 AVENUE FRANCIS DE PRESSENSE,Vénissieux,69259.0,1,4.865175997031,45.7233779613
10017,Francheville Bourg,"C20:A,C20E:A,JD211:R,JD982:R",True,False,False,1 RUE DE LA MAIRIE,Francheville,69089.0,1,4.764481040525,45.737043800658
10018,Francheville Bourg,"C20:R,C20E:R,JD211:A,JD982:A",True,False,False,6 PLACE DU BOURG,Francheville,69089.0,1,4.764068269569,45.736719693287
1002,Garantèze,"15:R,18:R,JD267:A,JD979:A",True,False,False,32 RUE DAISY GEORGES MARTIN,Irigny,69100.0,1,4.825600234174,45.678439759111
10075,Combe au Loup,"67:A,JD135:R,JD136:R",True,False,False,14 AVENUE DE VERDUN,Meyzieu,69282.0,1,4.986475941422,45.774769017293
10076,Combe au Loup,"67:R,JD136:A",True,False,False,14 AVENUE DE VERDUN,Meyzieu,69282.0,1,4.986199981652,45.774741771491
10081,St-Irenée - Cx Blanche,"49:A,C20:A,C20E:A,JD982:R",True,False,False,32 RUE COMMANDANT CHARCOT,Lyon 5e Arrondissement,69385.0,1,4.807751116429,45.755145825903
10082,St-Irenée - Cx Blanche,"49:R,C20:R,C20E:R,JD982:A",True,False,False,28 RUE COMMANDANT CHARCOT,Lyon 5e Arrondissement,69385.0,1,4.807996398254,45.755167430314
1027,Danton - République,"JD120:R,JD130:A,JD19:R,JD25:R,JD251:R,JD294:A,JD941:R,JD943:R",False,False,False,1 RUE DE LA REPUBLIQUE,Genas,69277.0,2,5.001792445697,45.731766994782
10340,Maison de l'Aqueduc,14:R,False,False,False,68 ROUTE DE LA LIBERATION,Sainte-Foy-lès-Lyon,69202.0,1,4.778484541485,45.727315953555
10442,Cogny,"3:A,JD151:R",True,False,False,330 ROUTE D ECULLY,Dardilly,69072.0,1,4.756302457798,45.800992312353
10444,Dardilly le Paillet,"3:R,3:A,JD32:R,JD36:A,JD36:R,JD818:R,JD818:A",False,False,False,22 ROUTE DE LA TOUR DE SALVAGNY,Dardilly,69072.0,1,4.748888270789,45.822655104316
10445,Le Bouquis,"3:A,GE4:A,JD151:R,JD171:R,JD32:R,JD843:R",True,False,False,20 ROUTE DE LIMONEST,Dardilly,69072.0,1,4.755292991018,45.823778974392
10446,Le Bouquis,"3:R,GE4:R,JD151:A,JD171:A,JD32:A,JD843:A",True,False,False,16 ROUTE DE LIMONEST,Dardilly,69072.0,1,4.75436399862,45.823594995459
10447,Les Marsaults,"3:A,GE4:A,JD151:R,JD171:R,JD32:R,JD697:A,JD843:R",True,False,False,0 CHEMIN DE CHARRIERE,Dardilly,69072.0,1,4.757298136484,45.822726347257
10025,La Dangereuse,"77:A,JD73:A",True,False,False,0 ROUTE DE SAINT TRIVIER,Cailloux-sur-Fontaines,69033.0,1,4.878126002373,45.853371965963
10026,La Dangereuse,"77:R,JD73:R,JD74:A,JD76:R,JD79:R",True,False,False,0 ROUTE DE SAINT TRIVIER,Cailloux-sur-Fontaines,69033.0,1,4.878006048148,45.853338040452
10084,Porte des Alpes,52:A,True,False,False,11 BOULEVARD ANDRE BOULLOCHE,Saint-Priest,69290.0,1,4.923879026047,45.72016998193
1012,Gare de Vaise-G.Collomb,C14:A,True,False,False,12 RUE DU 24 MARS 1852,Lyon 9e Arrondissement,69389.0,1,4.805089502292,45.781226690744
10129,Dauphiné -Lacassagne,"25:A,C13:R,C16:A,JD981:A",True,False,False,49 AVENUE LACASSAGNE,Lyon 3e Arrondissement,69383.0,1,4.869017839753,45.753087469126
10276,Chauderaie,"14:A,JD975:R",True,False,False,27 AVENUE DU CHATER,Francheville,69089.0,1,4.772054507579,45.743198414869
10281,Alai,C22E:A,True,False,False,204 AVENUE CHARLES DE GAULLE,Tassin-la-Demi-Lune,69244.0,1,4.766825923854,45.751430623797
10289,Demi-Lune Clémenceau,"55:A,86:A,98:A",True,False,False,72 AVENUE DE LA REPUBLIQUE,Tassin-la-Demi-Lune,69244.0,1,4.776581700343,45.763829460615
1029,Genas Place Jean Jaurès,"128:A,JD126:A,JD251:R,JD294:A,JD941:R,JD943:R",False,False,False,2 RUE LAMARTINE,Genas,69277.0,2,5.016602052759,45.738257974203
10298,Vaulx HDV Campus,"57:R,PL4:R",True,False,False,16 RUE MAURICE AUDIN,Vaulx-en-Velin,69256.0,1,4.920035989099,45.777841962583
10302,La Vallonnière,"14:A,19:R,3:R,45:R,72:R,86:R,98:R,C21:A",True,False,False,0 RUE PROFESSEUR GUERIN,Lyon 9e Arrondissement,69389.0,1,4.801869022433,45.765347397364
10304,Eglise Demi-Lune,"14:R,72:A,C22:A,C24:A",True,False,False,1B ROND POINT MARECHAL DE LATTRE DE TASSIGNY,Tassin-la-Demi-Lune,69244.0,1,4.785295724332,45.764287851103
10313,Les Croisettes,JD675:A,True,False,False,24 RUE FRANCOIS MERMET,Tassin-la-Demi-Lune,69244.0,1,4.768026441818,45.758812450903
10314,Croix Muriat,"72:A,JD177:R,JD675:R",True,False,False,24 AVENUE MARCEL MERIEUX,Saint-Genis-les-Ollières,69205.0,1,4.725372982966,45.759403955755
10315,Croix Muriat,"72:R,JD161:A,JD177:A,JD675:A",True,False,False,19 AVENUE MARCEL MERIEUX,Saint-Genis-les-Ollières,69205.0,1,4.725281881186,45.759378891291
10323,Georges Pompidou,"C11:A,C9:A",True,False,False,17 AVENUE GEORGES POMPIDOU,Lyon 3e Arrondissement,69383.0,1,4.863356947346,45.759098029266
10324,Georges Pompidou,"C11:R,C9:R",True,False,False,15 AVENUE GEORGES POMPIDOU,Lyon 3e Arrondissement,69383.0,1,4.862621694418,45.759127445277
10326,Sacré Coeur,"C11:R,C9:R",True,False,False,47 AVENUE GEORGES POMPIDOU,Lyon 3e Arrondissement,69383.0,1,4.86865284989,45.7594056573
10448,Les Marsaults,"3:R,GE4:R,JD151:A,JD171:A,JD32:A,JD697:R,JD843:A",True,False,False,0 CHEMIN DE CHARRIERE,Dardilly,69072.0,1,4.757467014249,45.823052958577
12273,Gare de Vaise-G.Collomb,"31:R,C6:R",True,False,False,12 RUE DU 24 MARS 1852,Lyon 9e Arrondissement,69389.0,1,4.805137614952,45.78086558693
12275,Gare de Vaise-G.Collomb,43:A,True,False,False,12 RUE DU 24 MARS 1852,Lyon 9e Arrondissement,69389.0,1,4.804413008967,45.780485458176
1238,Jardin des Plantes,S6:R,True,False,False,1 RUE DES TABLES CLAUDIENNES,Lyon 1er Arrondissement,69381.0,1,4.82900832261,45.771085165951
1331,La Buissonnière,"77:A,JD75:R,JD81:A,JD81:R",True,False,False,122 ROUTE DE LA COMBE,Cailloux-sur-Fontaines,69033.0,1,4.867783875612,45.844767649894
1332,La Buissonnière,"77:R,JD75:A,JD79:R",True,False,False,122 ROUTE DE LA COMBE,Cailloux-sur-Fontaines,69033.0,1,4.867815950645,45.844532979978
10028,Diligences,"77:A,JD61:R,JD73:A,JD81:A,JD81:R",True,False,False,445 ROUTE DU CAILLOU,Cailloux-sur-Fontaines,69033.0,1,4.876972667863,45.85017737584
10029,Diligences,"77:R,JD61:A,JD73:R,JD79:R",True,False,False,383 ROUTE DU CAILLOU,Cailloux-sur-Fontaines,69033.0,1,4.876779237126,45.850172743519
10032,Z.I. Rocade Est,"128:R,ZI5:A",False,False,False,50 AVENUE DES FRERES MONTGOLFIER,Genas,69277.0,2,4.977269166978,45.72350704215
10033,Z.I. Rocade Est,"128:A,ZI5:R",False,False,False,50 AVENUE DES FRERES MONTGOLFIER,Genas,69277.0,2,4.977768034026,45.723423016216
10034,Fresnel - Restaurant ZI,"128:R,ZI5:A",False,False,False,33 AVENUE DES FRERES MONTGOLFIER,Chassieu,69271.0,1,4.971159368433,45.725279979678
10035,Fresnel - Restaurant ZI,"128:A,ZI5:R",False,False,False,31 AVENUE DES FRERES MONTGOLFIER,Chassieu,69271.0,1,4.971304029135,45.725348596646
10130,Dauphiné -Lacassagne,"25:R,C13:A,C16:R,JD981:R",True,False,False,47 AVENUE LACASSAGNE,Lyon 3e Arrondissement,69383.0,1,4.86886195759,45.753284964626
10137,Tables Claudiennes,S6:A,True,False,False,20 RUE DES TABLES CLAUDIENNES,Lyon 1er Arrondissement,69381.0,1,4.833128892317,45.770903627864
10327,Ferrandière,"C11:A,C9:A",True,False,False,3 RUE FRANCOIS GILLET,Lyon 3e Arrondissement,69383.0,1,4.873575119762,45.759618594056
30388,Avenue du Plateau,"66:A,C14:A,S11:R",True,False,False,228 AVENUE DU PLATEAU,Lyon 9e Arrondissement,69389.0,1,4.794801974952,45.78427703404
30393,Jean Fournier,S11:R,False,False,False,104 RUE JEAN FOURNIER,Lyon 9e Arrondissement,69389.0,1,4.794859718328,45.780595929913
30394,Le Château Duchère,"S11:A,S11:R",True,False,False,108 RUE JEAN FOURNIER,Lyon 9e Arrondissement,69389.0,1,4.794399436927,45.779795901415
30397,Mermoz - Californie,34:R,True,False,False,3 BOULEVARD EDMOND MICHELET,Lyon 8e Arrondissement,69388.0,1,4.878308961309,45.733119016527
30443,Allobroges,"87:A,ZI1:A",True,False,False,44 AVENUE DU 24 AOUT 1944,Corbas,69273.0,1,4.916393050483,45.67832900919
30449,La Rochette - Clochettes,93:R,True,False,False,6 RUE DE LA ROCHETTE,Saint-Fons,69199.0,1,4.857147959086,45.694954295456
30450,La Rochette - Clochettes,93:A,True,False,False,6 RUE DE LA ROCHETTE,Saint-Fons,69199.0,1,4.857145901442,45.694909335505
3046,Vassieux,"59:A,A32:A,A71:A,C5:A,JD972:R",True,False,False,30 ROUTE DE STRASBOURG,Caluire-et-Cuire,69034.0,1,4.866492775273,45.791850311334
3047,Vassieux,"59:R,A32:R,A71:R,C5:R,JD972:A",True,False,False,25 ROUTE DE STRASBOURG,Caluire-et-Cuire,69034.0,1,4.865899419958,45.791818664637
30478,Valdo - Charcot,90:A,True,False,False,1 RUE PIERRE VALDO,Lyon 5e Arrondissement,69385.0,1,4.793344004683,45.749836327596
10328,Ferrandière,"C11:R,C9:R",True,False,False,8 RUE FRANCOIS GILLET,Lyon 3e Arrondissement,69383.0,1,4.873141033697,45.759672958406
10331,Maisons Neuves,"69:A,C9:R",True,False,False,17 RUE FREDERIC MISTRAL,Villeurbanne,69266.0,1,4.876358836282,45.75668421568
10332,Gorge de Loup,C24:A,True,False,False,1 RUE PROFESSEUR GUERIN,Lyon 9e Arrondissement,69389.0,1,4.804916592574,45.765910529884
10334,Constellation,14:R,True,False,False,36 CHEMIN DE LA RAUDE,Tassin-la-Demi-Lune,69244.0,1,4.773727955847,45.755231008823
10335,Constellation,14:A,True,False,False,13 AVENUE DE LA CONSTELLATION,Tassin-la-Demi-Lune,69244.0,1,4.774960047731,45.755097684901
10449,Dardilly Le Jubin,"3:R,3:A",False,False,False,7 CHEMIN DU DODIN,Dardilly,69072.0,1,4.761315008331,45.817709000042
10594,Meyzieu Gadelles,85:R,True,False,False,232 CHEMIN DE POMMIER,Meyzieu,69282.0,1,5.017974160541,45.778695640657
1393,La Gabrielle,"21:R,61:R,JD35:A",True,False,False,20 ROUTE NATIONALE 6,Limonest,69116.0,1,4.77975005995,45.808240019177
1395,La Gadinière,78:R,True,False,False,212 ROUTE DE CHARLY,Saint-Genis-Laval,69204.0,1,4.790961979057,45.669822021628
1402,La Grande Plaine,26:R,True,False,False,206 ROUTE DE GRENOBLE,Saint-Priest,69290.0,1,4.961230007436,45.715961913016
30514,Trois Artichauts,"46:A,49:A,C19:A,C20E:A,JD982:R,PL3:A",True,False,False,2 AVENUE DEBROUSSE,Lyon 5e Arrondissement,69385.0,1,4.816276040172,45.751607990202
10037,Chassieu Jean Perrin,"76:A,ZI5:R",True,False,False,5 RUE D ARSONVAL,Chassieu,69271.0,1,4.971345038969,45.730358977555
30518,Chantegrillet,"C20:R,C20E:R",True,False,False,45 AVENUE DU CHATER,Francheville,69089.0,1,4.773428741754,45.738524074541
10038,Chassieu Arago,76:R,True,False,False,93 AVENUE DU PROGRES,Chassieu,69271.0,1,4.962387949722,45.724882475843
3052,Vaulx Berthelot,7:R,True,False,False,22 RUE MARCELLIN BERTHELOT,Vaulx-en-Velin,69256.0,1,4.922088025942,45.788697024574
30520,La Gravière,90:A,True,False,False,157 AVENUE SIDOINE APOLLINAIRE,Lyon 9e Arrondissement,69389.0,1,4.804135998851,45.76246602767
30532,Yvours,15:A,True,False,False,29A RUE DU STADE,Irigny,69100.0,1,4.826289356702,45.690278922552
30533,Yvours,15:R,True,False,False,30 RUE DU STADE,Irigny,69100.0,1,4.825967048123,45.69023198112
30541,Trion,"66:R,90:R",True,False,False,81 RUE DE TRION,Lyon 5e Arrondissement,69385.0,1,4.814258568239,45.757738759609
30575,Gorge de Loup,"72:R,86:R,98:R,98E:R",True,False,False,1 RUE PROFESSEUR GUERIN,Lyon 9e Arrondissement,69389.0,1,4.805023544397,45.766574263565
30578,Les Granges,"86:A,JD271:A,JD272:A,JD691:R,JD845:R,S2:A",True,False,False,52 RUE DE PARIS,La Tour-de-Salvagny,69250.0,2,4.710894741089,45.816038271898
3058,Vaulx Jean Moulin,"37:R,7:R",True,False,False,0 AVENUE DU 8 MAI 1945,Vaulx-en-Velin,69256.0,1,4.916147664173,45.787444555749
314,Cailloux Bellevue,77:R,False,False,False,205 ROUTE DES TATIERES,Cailloux-sur-Fontaines,69033.0,1,4.867506335487,45.853838369914
31403,Cazeneuve - Berliet,C16:A,True,False,False,50 RUE ANTOINE LUMIERE,Lyon 8e Arrondissement,69388.0,1,4.866282031948,45.738739981201
31982,La Grappe d'Or,"43:A,JD243:R,JD243:A,JD78:R",True,False,False,515 ROUTE DE SAINT ANDRE DE CORCY,Genay,69278.0,2,4.843254940695,45.902580022096
3285,Maison des Canuts,S4A:R,True,False,False,11 RUE D IVRY,Lyon 4e Arrondissement,69384.0,1,4.833544046147,45.777197977779
10039,Chassieu Arago,76:A,True,False,False,93 AVENUE DU PROGRES,Chassieu,69271.0,1,4.962702097334,45.72527119755
10040,Mi Plaine - Pélossier,76:R,True,False,False,27 RUE DU PROGRES,Saint-Priest,69290.0,1,4.958529859765,45.718086428896
10041,Mi Plaine - Pélossier,76:A,True,False,False,27 RUE DU PROGRES,Saint-Priest,69290.0,1,4.958416452075,45.717593988426
10045,Ruffinières,57:A,True,False,False,11 RUE PRAINET,Décines-Charpieu,69275.0,1,4.970911034468,45.766412036358
10046,Ruffinières,57:R,True,False,False,4 RUE PRAINET,Décines-Charpieu,69275.0,1,4.970591385417,45.767394425563
10047,Décines Verdun,57:A,True,False,False,5 RUE DE VERDUN,Décines-Charpieu,69275.0,1,4.970403950929,45.765150992939
10139,Mairie du 1er,"C13:R,C18:R,S6:R",True,False,False,10 RUE DU JARDIN DES PLANTES,Lyon 1er Arrondissement,69381.0,1,4.830333033416,45.769635992573
10140,Mairie du 1er,"C13:A,C18:A,PL2:A,S6:A",True,False,False,5 RUE DU JARDIN DES PLANTES,Lyon 1er Arrondissement,69381.0,1,4.83005058978,45.769675838745
1018,Genas Place République,"C200:A,JD120:A,JD130:R,JD25:A,JD294:R,JD941:A,JD943:A",True,False,False,10 RUE DE LA REPUBLIQUE,Genas,69277.0,2,4.996674976257,45.732521967664
10188,Mermoz - Pinel,"26:A,79:A",True,False,False,221 BOULEVARD PINEL,Bron,69029.0,1,4.887488950077,45.730214988525
10199,Hénon,33:R,True,False,False,91 RUE DENFERT ROCHEREAU,Lyon 4e Arrondissement,69384.0,1,4.828224875294,45.778492566795
10200,Résidence E.Charret,33:A,True,False,False,77 RUE DE CUIRE,Lyon 4e Arrondissement,69384.0,1,4.829249940214,45.781819996942
10201,Résidence E.Charret,33:R,True,False,False,75 RUE DE CUIRE,Lyon 4e Arrondissement,69384.0,1,4.829183015677,45.781510038841
10339,Maison de l'Aqueduc,14:A,False,False,False,77 ROUTE DE LA LIBERATION,Sainte-Foy-lès-Lyon,69202.0,1,4.778658781459,45.726898115913
34460,St-Martin,"128:A,76:R,JD132:A,JD132:R",True,False,False,35 RUE DE LA CROIX ROUSSE,Saint-Priest,69290.0,1,4.950008040218,45.704731987789
34533,Parc des Corbèges,ZI1:R,False,False,False,13 RUE DE COLLIERES,Saint-Priest,69290.0,1,4.931493369399,45.684032136343
34534,Parc des Corbèges,ZI1:A,False,False,False,11 RUE DE COLLIERES,Saint-Priest,69290.0,1,4.931102036835,45.684176214853
42548,Vaulx Picasso,"57:A,C8:A,PL4:A",True,False,False,51 AVENUE GABRIEL PERI,Vaulx-en-Velin,69256.0,1,4.915189009808,45.776466019987
10051,Chassieu Le Haut,76:R,True,False,False,6 CHEMIN DE LA PLACE,Chassieu,69271.0,1,4.972211319217,45.746175288557
10052,Chassieu Le Haut,76:A,True,False,False,13 CHEMIN DE DECINES,Chassieu,69271.0,1,4.973392004424,45.746237036681
10068,Saxe - Gambetta,"C12:A,C14:R,C5:R,JD980:A,PL3:R",True,False,False,4 AVENUE JEAN JAURES,Lyon 7e Arrondissement,69387.0,1,4.846712578622,45.753453378773
10350,Leclerc - Ayasse,"60:R,BR60:R",True,False,False,49 AVENUE LECLERC,Lyon 7e Arrondissement,69387.0,1,4.823947008207,45.736416036925
42549,Vaulx Picasso,"57:R,C8:R,PL4:R",True,False,False,51 AVENUE GABRIEL PERI,Vaulx-en-Velin,69256.0,1,4.915098026495,45.77647900076
42557,Le Tonkin,"70:A,C1:A,C2:A,C5:A,JD981:R,PL1:A",True,False,False,3 ALLEE BUSTER KEATON,Villeurbanne,69266.0,1,4.861930951709,45.775486017971
42558,Le Tonkin,"70:R,C1:R,C2:R,C5:R,JD981:A",True,False,False,2 ALLEE BUSTER KEATON,Villeurbanne,69266.0,1,4.861576971506,45.77525400044
42559,Rossellini,"70:A,C1:A,C2:A,C5:A,JD981:R,PL1:A",True,False,False,7 AVENUE ROBERTO ROSSELLINI,Villeurbanne,69266.0,1,4.862450964721,45.778699963554
42560,Rossellini,"70:R,C1:R,C2:R,C5:R,JD981:A",True,False,False,6 AVENUE ROBERTO ROSSELLINI,Villeurbanne,69266.0,1,4.862426065877,45.778535978494
42561,Tête d'Or - Stalingrad,"70:A,C1:A,C2:A,C26:R,C5:A",True,False,False,14 BOULEVARD DU 11 NOVEMBRE 1918,Villeurbanne,69266.0,1,4.860856451813,45.779510197548
46359,Pommier,"32:A,JD127:A,JD892:R,JD942:R",False,False,False,24 ROUTE DE PUSIGNAN,Jons,69280.0,2,5.08461900373,45.795881006869
47061,Garibaldi Paul Bert,C25:R,True,False,False,215 RUE GARIBALDI,Lyon 3e Arrondissement,69383.0,1,4.852816036647,45.757366975617
10351,Leclerc - Ayasse,"60:A,BR60:A",True,False,False,49 AVENUE LECLERC,Lyon 7e Arrondissement,69387.0,1,4.823955722342,45.736722603831
10352,Leclerc - Général Frère,"60:R,BR60:R",True,False,False,20 AVENUE LECLERC,Lyon 7e Arrondissement,69387.0,1,4.829904120342,45.743746571023
10359,Elisée Reclus,79:A,True,False,False,54 RUE ELISEE RECLUS,Décines-Charpieu,69275.0,1,4.937136860018,45.747533457185
10361,Roosevelt C.Commercial,"52:R,79:A",True,False,False,205 AVENUE FRANKLIN ROOSEVELT,Décines-Charpieu,69275.0,1,4.93351300175,45.747991009015
10362,Roosevelt C.Commercial,"52:A,79:R",True,False,False,199 AVENUE FRANKLIN ROOSEVELT,Vaulx-en-Velin,69256.0,1,4.933513048293,45.748386988122
10363,Décines Verlaine,"79:A,JD137:R",True,False,False,97 RUE ELISEE RECLUS,Décines-Charpieu,69275.0,1,4.941125978468,45.750882021296
10372,Georges Brassens,76:R,True,False,False,43 RUE SULLY,Décines-Charpieu,69275.0,1,4.975211776202,45.768258141888
1039,Genay Madone,"43:R,JD78:A",True,False,False,525 ROUTE DE NEUVILLE,Genay,69278.0,2,4.835300349345,45.895991783198
1063,Gorgeat,"40:R,70:R",True,False,False,31 ROUTE DE LYON,Neuville-sur-Saône,69143.0,1,4.839665042378,45.868598983923
10705,Invalides Hôp. P. Garraud,"45:A,65:R,C20:A,C20E:A,JD975:R",True,False,False,136 RUE COMMANDANT CHARCOT,Lyon 5e Arrondissement,69385.0,1,4.789464285622,45.747022821145
10836,Leclair,66:A,True,False,False,12 RUE GORGE DE LOUP,Lyon 9e Arrondissement,69389.0,1,4.804694681123,45.770136944239
10898,St-Clair Square Brosset,"59:R,9:R,JD203:A",True,False,False,157 RUE GRANDE DE SAINT CLAIR,Caluire-et-Cuire,69034.0,1,4.860194033355,45.791145847479
10089,Mions Jules Vallès,"62:A,JD195:R",False,False,False,8 RUE JULES VALLES,Mions,69283.0,1,4.949630951916,45.654068004485
47065,Fée des Eaux,"18:R,JD15:R,JD15:A,JD2:R,JD264:A,JD266:R,JD6:R,JD6:A,JD741:A,JD741:R",True,False,False,196 CHEMIN DES RIVIERES,Vernaison,69260.0,2,4.80227199646,45.650044019087
47066,Maçonnière,"18:R,JD15:A,JD15:R,JD2:R,JD264:A,JD266:R,JD6:A,JD6:R,JD741:R,JD741:A",True,False,False,120 RUE DE LA MACONNIERE,Vernaison,69260.0,2,4.804222967165,45.647826978028
47068,Bois Saint Paul,"18:R,JD15:A,JD15:R,JD2:R,JD266:A,JD266:R,JD6:A,JD6:R,JD741:R,JD741:A",True,False,False,232 RUE DES GARENNES,Vernaison,69260.0,2,4.801724028862,45.643967010175
47069,Les Oiseaux,"18:R,JD15:R,JD15:A,JD2:R,JD266:R,JD266:A,JD6:R,JD6:A,JD741:A,JD741:R",True,False,False,2 CHEMIN DES FERRATIERES,Vernaison,69260.0,2,4.802882982152,45.640549042973
47072,M. Houël Hôtel de Ville,"BRT4:R,C12:R",True,False,False,5 AVENUE MARCEL HOUEL,Vénissieux,69259.0,1,4.883175984956,45.696258007006
47080,Combattants,C7:A,True,False,False,30 RUE AMPERE,Oullins-Pierre-Bénite,69149.0,1,4.814280525789,45.707167474041
47081,Combattants,C7:R,True,False,False,28 RUE AMPERE,Oullins-Pierre-Bénite,69149.0,1,4.814177020359,45.707388306898
47082,Charton,C7:R,True,False,False,32 RUE LOUIS AUGUSTE BLANQUI,Oullins-Pierre-Bénite,69149.0,1,4.811080775953,45.711758811796
10092,Place de la Paix,C17:R,True,False,False,56 RUE SEVERINE,Villeurbanne,69266.0,1,4.914705957833,45.751210405864
101,Genas - Jean Mermoz,"128:R,JD25:R,JD251:A",False,False,False,21 RUE LAMARTINE,Genas,69277.0,2,5.022484112993,45.741967932359
10119,La Vallonnière,"14:R,19:A,3:A,45:A,72:A,86:A,98:A,C21:R",True,False,False,0 RUE PROFESSEUR GUERIN,Lyon 9e Arrondissement,69389.0,1,4.801702398783,45.765360056408
10393,Chardonnet,"52:R,67:A,ZI3:A,ZI4:A",True,False,False,68 AVENUE DE BOHLEN,Vaulx-en-Velin,69256.0,1,4.928300971859,45.766129042213
1040,Général André,C25:A,True,False,False,134 AVENUE PAUL SANTY,Lyon 8e Arrondissement,69388.0,1,4.877942259695,45.727771959329
10401,Boileau,"85:A,JD123:R",True,False,False,214 CHEMIN DE POMMIER,Meyzieu,69282.0,1,5.014260045657,45.7781470043
10402,Boileau,"85:R,JD123:A",True,False,False,212 CHEMIN DE POMMIER,Meyzieu,69282.0,1,5.013843868817,45.778155035465
47130,Oullins Ville,C10:A,True,False,False,187 RUE GRANDE RUE,Oullins-Pierre-Bénite,69149.0,1,4.802293062578,45.711822954884
47135,Les Gambins,"84:A,R2:A",False,False,False,27 MONTEE DES CHAVANNES,Poleymieux-au-Mont-d'Or,69153.0,1,4.795923027343,45.852138959397
47137,Darcieux - P Visiteurs 1,88:A,True,False,False,57 RUE FRANCISQUE DARCIEUX,Saint-Genis-Laval,69204.0,1,4.804470004464,45.698425971783
47165,Le Manoir,78:R,True,False,False,69 RUE PIERRE SEMARD,Grigny-sur-Rhône,69096.0,2,4.795220955199,45.610951966844
10405,Peyssilieu,"85:A,JD121:A",True,False,False,6 RUE DE LA REPUBLIQUE,Meyzieu,69282.0,1,4.987201943583,45.769641095395
10406,Peyssilieu,"85:R,JD121:R",True,False,False,3 RUE DE LA REPUBLIQUE,Meyzieu,69282.0,1,4.987217952215,45.769701029767
10408,Meyzieu Mendès France,"85:R,JD121:R",True,False,False,2 BOULEVARD PIERRE MENDES FRANCE,Meyzieu,69282.0,1,4.990876825403,45.766628694908
1041,Général André,C25:R,True,False,False,111 AVENUE PAUL SANTY,Lyon 8e Arrondissement,69388.0,1,4.878116954554,45.727741988888
12041,Lycée François Cevert,"19:A,JD151:A,JD172:R,JD840:R",True,False,False,80 CHEMIN DE LA SAUVEGARDE,Écully,69081.0,1,4.788954960061,45.782903269631
1403,La Grande Serve,60:A,True,False,False,23 RUE DU 11 NOVEMBRE 1918,Feyzin,69276.0,1,4.850175181773,45.670510522
1405,La Grange,"68:A,JD137:A,JD940:A",False,False,False,44 CHEMIN DE LA GRANGE,Chassieu,69271.0,1,4.966176056793,45.744748017388
1414,La Madone,72:A,True,False,False,0 ROUTE DE STE CONSORCE,Sainte-Consorce,69190.0,2,4.696213973273,45.777825003143
1683,Les Gambins,"82:A,82:R,84:R,84:A,JD185:R,JD185:A,JD58:R,JD58:A,R2:R,R2:A",False,False,False,27 MONTEE DES CHAVANNES,Poleymieux-au-Mont-d'Or,69153.0,1,4.796117758179,45.852730761024
1700,Les Hautannes,"96:A,96:R,JD242:A,JD242:R",True,False,False,33 RUE DU 8 MAI 1945,Saint-Germain-au-Mont-d'Or,69207.0,2,4.800807553149,45.879451790604
287,Buers - Pressensé,C17:A,True,False,False,291 RUE FRANCIS DE PRESSENSE,Villeurbanne,69266.0,1,4.896782957945,45.769116025795
10144,Bron Jean Jaurès,"24:R,79:R",True,False,False,65 RUE JEAN JAURES,Bron,69029.0,1,4.905870669179,45.729971435137
10145,Bron Salengro,"24:A,79:A",True,False,False,27 RUE ROGER SALENGRO,Bron,69029.0,1,4.908436058488,45.730249955167
10146,Bron Salengro,"24:R,79:R",True,False,False,28 RUE ROGER SALENGRO,Bron,69029.0,1,4.908449984725,45.730768031133
47175,Jarrosson,"49:A,6:A,6E:A,90:A",True,False,False,27 AVENUE MAURICE JARROSSON,Sainte-Foy-lès-Lyon,69202.0,1,4.797650965437,45.742114015957
47176,Ste Foy Eglise,"6:R,6E:R,C19:R,JD100:A",True,False,False,1A AVENUE VALIOUD,Sainte-Foy-lès-Lyon,69202.0,1,4.805033056049,45.736537029282
47177,La Chenaie - Fontanières,"6:A,6E:A,8:R,JD41:A,JD978:A",True,False,False,27 AVENUE GENERAL DE GAULLE,La Mulatière,69142.0,1,4.810657953064,45.725138015112
10147,Bron Hôtel de Ville,"24:A,79:A",True,False,False,6 RUE DE VERDUN,Bron,69029.0,1,4.908901065806,45.734033691764
10148,Bron Hôtel de Ville,"24:R,79:R",True,False,False,1 RUE ROGER SALENGRO,Bron,69029.0,1,4.908407948273,45.733193993244
1015,Garibaldi - Gambetta,"C11:R,C25:R,JD980:A,PL1:A",True,False,False,77 COURS GAMBETTA,Lyon 3e Arrondissement,69383.0,1,4.853310110918,45.751793455541
10150,Bron Jules Mas,"24:R,79:R,C17:A,JD971:A",True,False,False,49 AVENUE CAMILLE ROUSSET,Bron,69029.0,1,4.910338673258,45.735639002659
10155,Bron Léo Lagrange,79:A,True,False,False,47 AVENUE DU PRESIDENT SALVADOR ALLENDE,Bron,69029.0,1,4.929007930948,45.740646249225
10156,Bron Léo Lagrange,79:R,True,False,False,44 AVENUE DU PRESIDENT SALVADOR ALLENDE,Bron,69029.0,1,4.928579205559,45.740278085065
10158,Bron Libération,C17:A,True,False,False,5 AVENUE EDOUARD HERRIOT,Bron,69029.0,1,4.901398090223,45.730253776931
47179,Gare de Pierre-Bénite,17:A,True,False,False,18 RUE STALINGRAD,Oullins-Pierre-Bénite,69149.0,1,4.82345000884,45.705909003211
47180,Brotillon,17:A,True,False,False,30 CHEMIN DU BROTILLON,Oullins-Pierre-Bénite,69149.0,1,4.82594802261,45.704519985514
47186,4 Chemins - La Salette,45:R,True,False,False,69 RUE FRANCOIS GENIN,Lyon 5e Arrondissement,69385.0,1,4.795662028645,45.750382978263
47187,Le Visan,"45:R,55:A",True,False,False,218 AVENUE BARTHELEMY BUYER,Lyon 5e Arrondissement,69385.0,1,4.789409965179,45.764127039501
21606,Ronno Maisons Neuves,JD344:A,False,,,,,,5,4.370835,45.983841
21607,Ronno La Petite Montagne,JD344:A,False,,,,,,5,4.397279,45.986728
21609,Ronno Les Tardières,JD344:A,False,,,,,,5,4.363254,45.983
21614,St-Romain-de-Popey Les Arnas,"JD412:R,JD412:A",True,,,,,,3,4.53557,45.858792
21634,St-Romain-de-Popey Les Gouttes,JD404:A,False,,,,,,3,4.524117,45.850116
21635,St-Romain-de-Popey Ordilly,JD412:R,False,,,,,,3,4.543949,45.836142
21636,St-Romain-de-Popey Ordilly,JD412:A,False,,,,,,3,4.544078,45.836128
21637,St-Romain-de-Popey l'Ortet,JD412:R,False,,,,,,3,4.5318,45.853631
1043,Général Frère,"131:A,26:A,79:A",True,False,False,235 BOULEVARD PINEL,Bron,69029.0,1,4.887030054432,45.726783015218
10435,Piscine de Vaise,"19:A,3:A,66:A",True,False,False,57 AVENUE SIDOINE APOLLINAIRE,Lyon 9e Arrondissement,69389.0,1,4.796803616884,45.770850156926
10437,Apollinaire Bourbonnais,"19:A,3:A,66:A",True,False,False,29 AVENUE SIDOINE APOLLINAIRE,Lyon 9e Arrondissement,69389.0,1,4.795743037691,45.772783962638
1044,Genevrey,"33:R,JD201:A,JD63:A",True,False,False,1088 AVENUE VICTOR HUGO,Rillieux-la-Pape,69286.0,1,4.880404555661,45.820817933316
10441,Dardilly Les Mouilles,"3:R,JD151:A,JD176:A,JD36:A,JD697:R,JD841:A",True,False,False,0 ROUTE D ECULLY,Dardilly,69072.0,1,4.759416671378,45.79748681853
21638,St-Romain-de-Popey l'Ortet,"JD412:A,JD412:R",False,,,,,,3,4.5317,45.853429
21755,Tarare La Patte d'Oie,"JD400:A,JD400:R,JD425:R",False,,,,,,4,4.432744,45.901776
47188,Berlioz,"2:A,S10:R",True,False,False,51 RUE HECTOR BERLIOZ,Lyon 9e Arrondissement,69389.0,1,4.822394022515,45.799361955556
47189,Place des Tapis,"2:A,33:A",True,False,False,6 BOULEVARD DES CANUTS,Lyon 4e Arrondissement,69384.0,1,4.830074065251,45.77558697309
21760,Tarare Route de Paris,"JD400:R,JD400:A,JD417:A,JD417:R,JD420:R",False,,,,,,4,4.411446,45.89193
21761,Tarare Place Simonet,164:R,False,,,,,,4,4.435634,45.896673
21762,Tarare Tennis,"216:A,217:A,JD416:A,JD420:R,JD420:A",False,,,,,,4,4.444619,45.890162
21763,Tarare Tennis,"216:R,217:R,JD416:R,JD420:R",False,,,,,,4,4.444479,45.890196
21765,Tarare Vert Galant,JD420:R,True,,,,,,4,4.44452,45.890689
21766,Montrottier Albigny,JD406:R,False,,,,,,4,4.450726,45.823913
10165,Manissieux P. Blanche,"26:A,26:R",True,False,False,61 ROUTE DE GRENOBLE,Saint-Priest,69290.0,1,4.992008818145,45.705623714202
10166,Flachet - Alain Gilles,"69:A,JD977:A,JD977:R",True,False,False,43 RUE FLACHET,Villeurbanne,69266.0,1,4.889762962259,45.768095039318
10169,Austerlitz,"C13:A,PL2:A",False,False,False,1 RUE DE BELFORT,Lyon 4e Arrondissement,69384.0,1,4.834897034921,45.77574200047
10170,Bienvenus - Pressensé,C26:R,True,False,False,83 RUE DES BIENVENUS,Villeurbanne,69266.0,1,4.885246434477,45.771713239993
10171,Perroncel,C26:A,True,False,False,45 RUE EDOUARD VAILLANT,Villeurbanne,69266.0,1,4.880193895258,45.775383354497
21767,Montrottier Albigny,JD406:A,False,,,,,,4,4.450812,45.823958
21768,Montrottier Le Bourg,"JD406:R,JD419:R",False,,,,,,4,4.46644,45.790023
21855,St-V.-de-R. Chem. des Noirs,"JD348:R,JD352:R,JD379:R",False,,,,,,5,4.395758,46.057249
21857,St-V.-de-R. Chez Faurezien,JD351:A,False,,,,,,5,4.366907,46.036001
10175,Legay,C8:R,True,False,False,174 RUE NICOLAS GARNIER,Villeurbanne,69266.0,1,4.916817694219,45.754564470275
10176,Legay,C8:A,True,False,False,95 RUE NICOLAS GARNIER,Villeurbanne,69266.0,1,4.917897045087,45.754668020398
10177,Abondance,C11:R,True,False,False,57 COURS GAMBETTA,Lyon 3e Arrondissement,69383.0,1,4.849996944004,45.752901028826
10185,Mermoz - Pinel,"C15:R,C15E:R,PL1:A",True,False,False,155B AVENUE JEAN MERMOZ,Lyon 8e Arrondissement,69388.0,1,4.886871957775,45.730901956467
1045,Genevrey,33:A,True,False,False,1073 AVENUE VICTOR HUGO,Rillieux-la-Pape,69286.0,1,4.880441056531,45.820772099843
10450,Dardilly Peupliers,"89:A,89D:A,GE4:R,JD171:A,JD33:A,JD841:A",True,False,False,39 CHEMIN DES PEUPLIERS,Dardilly,69072.0,1,4.758349693982,45.814161713651
10457,Muséum,"38:A,C1:A",True,False,False,23 BOULEVARD DES BELGES,Lyon 6e Arrondissement,69386.0,1,4.847890756042,45.775039143538
21893,Savigny Taylan,JD404:A,False,,,,,,3,4.535398,45.823513
10458,Muséum,"38:R,C1:R",True,False,False,28 BOULEVARD DES BELGES,Lyon 6e Arrondissement,69386.0,1,4.848326550623,45.774723353663
10525,1ère D.F.L.,"46:R,49:R,C19:R,C20E:R,JD982:A",True,False,False,43 MONTEE SAINT LAURENT,Lyon 5e Arrondissement,69385.0,1,4.814995984254,45.750701575939
21894,Claveisolles Claveisette,JD386:R,False,,,,,,5,4.483821,46.119359
10530,Dupuy,"21:A,GE4:R,GE4:A",True,False,False,29 CHEMIN DU TRONCHON,Champagne-au-Mont-d'Or,69040.0,1,4.776916064644,45.802259973556
10532,Echangeur Sans-Souci,"21:A,GE4:R,GE4:A",True,False,False,40 CHEMIN DE PAISY,Limonest,69116.0,1,4.772189010098,45.80489399223
11032,Savoie,"50:A,JD8:R",False,False,False,21 RUE JULES VERNE,Saint-Priest,69290.0,1,4.981870574698,45.700516248616
2878,St Priest Les Roses,62:A,True,False,False,26 BOULEVARD DES ROSES,Saint-Priest,69290.0,1,4.939580892076,45.686680155782
1019,Genas Place République,"C200:R,JD120:R,JD130:A,JD25:R,JD294:A,JD941:R,JD943:R",True,False,False,6 RUE DE LA REPUBLIQUE,Genas,69277.0,2,4.996511975821,45.732551036464
10190,Résidence Marianne,"62:R,87:R",True,False,False,46 RUE PASTEUR,Mions,69283.0,1,4.959484283065,45.665026586521
10191,Monplaisir Lumière,C16:A,True,False,False,1 PLACE AMBROISE COURTOIS,Lyon 8e Arrondissement,69388.0,1,4.871802046395,45.74532999244
47190,Place des Tapis,"2:R,33:R",True,False,False,1 RUE DE LA TERRASSE,Lyon 4e Arrondissement,69384.0,1,4.830477046047,45.774706975109
47191,Subsistances,"19:R,31:R,40:R,C14:R,JD974:A,PL3:R",True,False,False,8 QUAI SAINT VINCENT,Lyon 1er Arrondissement,69381.0,1,4.81685795564,45.767807967576
47193,Champagne (che.du Pavé),21:R,True,False,False,2 CHEMIN DU TRONCHON,Champagne-au-Mont-d'Or,69040.0,1,4.784589007359,45.801608998049
47194,Champagne De Gaulle,"21:R,61:R,GE4:A,GE4:R",True,False,False,16 AVENUE GENERAL DE GAULLE,Champagne-au-Mont-d'Or,69040.0,1,4.784380992676,45.802446042372
47195,Champagne De Gaulle,"21:A,61:A",True,False,False,16 AVENUE GENERAL DE GAULLE,Champagne-au-Mont-d'Or,69040.0,1,4.784214018557,45.802754007091
47196,Hameau du Puy d'Or,"21:A,JD183:A,JD35:R,JD77:R",True,False,False,737 ROUTE DU PUY D OR,Limonest,69116.0,1,4.775043032193,45.820374009994
10196,Les Canuts,"2:A,33:A",True,False,False,24 BOULEVARD DES CANUTS,Lyon 4e Arrondissement,69384.0,1,4.829100458978,45.776807909637
10197,Les Canuts,"2:R,33:R",True,False,False,20 BOULEVARD DES CANUTS,Lyon 4e Arrondissement,69384.0,1,4.829571472879,45.776131363798
10198,Hénon,"2:A,33:A",True,False,False,48 BOULEVARD DES CANUTS,Lyon 4e Arrondissement,69384.0,1,4.827668997579,45.778830021554
10533,Echangeur Sans-Souci,21:R,True,False,False,40 CHEMIN DE PAISY,Limonest,69116.0,1,4.772572056248,45.804647971165
10543,Limonest Maison Retraite,"21:R,JD35:A",True,False,False,114 ROUTE DE BELLEVUE,Limonest,69116.0,1,4.772330032398,45.840619866284
47206,Ecoles de Collonges,"71:R,71:A,JD181:R,JD54:A,JD70:A,JD71:A,JD819:R",False,False,False,7 CHEMIN DE L ECULLY,Collonges-au-Mont-d'Or,69063.0,1,4.837982985936,45.822626981401
47207,Verlaine,"69:A,C23:R,PL4:A,TB11:A",True,False,False,112 COURS TOLSTOI,Villeurbanne,69266.0,1,4.880441045142,45.762096968732
47208,Verlaine,"69:R,C23:A,PL4:R,TB11:R",True,False,False,95 COURS TOLSTOI,Villeurbanne,69266.0,1,4.880155022216,45.762196973062
23332,Communay La Guicharde,"211:R,213:A,JD720:R,JD750:R,JD752:R,JD914:R,JD999:A",True,,,,,,2,4.843628,45.605875
10547,Timbaud,87:A,True,False,False,4 RUE FERNAND PELLOUTIER,Vénissieux,69259.0,1,4.900609767801,45.691259627382
10552,Jacques Prévert,"54:A,76:A",True,False,False,0 AVENUE DE CORBETTA,Corbas,69273.0,1,4.895170984983,45.662029984939
23333,Communay Le Limon,"211:A,JD720:A",True,,,,,,2,4.853399,45.595093
23334,Communay Le Limon,"211:R,JD720:R,JD914:R",True,,,,,,2,4.853291,45.594948
10565,Aquavert,"14:R,JD975:A",True,False,False,2 AVENUE DU CHATER,Francheville,69089.0,1,4.771788956618,45.75088599039
10566,Gorge de Loup,"19:A,19:R,45:R,90:R",True,False,False,56 RUE SERGENT MICHEL BERTHET,Lyon 9e Arrondissement,69389.0,1,4.80449802947,45.766900853928
10591,Décines Champ Fleuri,67:A,True,False,False,118 AVENUE EDOUARD HERRIOT,Décines-Charpieu,69275.0,1,4.972211984672,45.773924001353
290,Buers - Salengro,"37:R,C17:R",True,False,False,219 AVENUE ROGER SALENGRO,Villeurbanne,69266.0,1,4.889637818202,45.782631288477
2983,Thioley,39:A,True,False,False,26 AVENUE JULES GUESDE,Vénissieux,69259.0,1,4.887942052611,45.715861240165
47209,Collège Jean Macé,"JD918:R,JD918:A",False,False,False,23 RUE EDOUARD VAILLANT,Villeurbanne,69266.0,1,4.879916058855,45.776818983475
10202,Le Parc Brunier,33:A,True,False,False,18 RUE PIERRE BRUNIER,Caluire-et-Cuire,69034.0,1,4.829641963378,45.784453974517
10203,Le Parc Brunier,33:R,True,False,False,9 RUE PIERRE BRUNIER,Caluire-et-Cuire,69034.0,1,4.829442660099,45.784073324017
10204,Hauts de la Rochette,33:A,True,False,False,33 RUE PIERRE BRUNIER,Caluire-et-Cuire,69034.0,1,4.829888034943,45.786022022558
10205,Hauts de la Rochette,33:R,True,False,False,33 RUE PIERRE BRUNIER,Caluire-et-Cuire,69034.0,1,4.829834012931,45.785993967498
1021,Genas - Bonnevay,C8:R,True,False,False,600 BOULEVARD LAURENT BONNEVAY INTERIEUR,Bron,69029.0,1,4.907136959918,45.750641982725
47213,Beauvisage CISL,"26:A,34:A,BRT4:A,C16:A",True,False,False,101 BOULEVARD DES ETATS UNIS,Lyon 8e Arrondissement,69388.0,1,4.866859981338,45.730136985386
47214,Route de Lyon,"54:R,JD976:A",True,False,False,68 ROUTE DE LYON,Corbas,69273.0,1,4.895268940134,45.678568980548
47215,Chemin de Grange Blanche,"54:R,JD11:R",True,False,False,14 CHEMIN DE GRANGE BLANCHE,Corbas,69273.0,1,4.901383047344,45.663431016034
47216,Leclerc - Général Frère,"60:A,BR60:A",True,False,False,22 AVENUE LECLERC,Lyon 7e Arrondissement,69387.0,1,4.829386943694,45.743361014501
47218,Francheville Doulline,"C20:R,C20E:R",True,False,False,90 RUE GRANDE RUE,Francheville,69089.0,1,4.761796033562,45.737272957813
47220,Collège des Vernes,81:A,True,False,False,90 RUE JEAN-MARIE IMBERT,Givors,69091.0,2,4.769068040739,45.598565040059
47221,Pusignan - Bruyères,"32:A,32:R",False,False,False,19 RUE DES BRUYERES,Pusignan,69285.0,2,5.078233947524,45.764692977361
47222,Pusignan - Ampère,"32:A,32:R",False,False,False,43 RUE DES BRUYERES,Pusignan,69285.0,2,5.08170899188,45.762880009814
47223,Pusignan - Auriol,"32:A,32:R",False,False,False,0 RUE DES BRUYERES,Pusignan,69285.0,2,5.088243042995,45.762699989541
47224,Monge,"25:R,JD130:A,JD971:R",True,False,False,296 ROUTE DE GENAS,Villeurbanne,69266.0,1,4.909850998323,45.750658026125
47225,Lycée de l'Automobile,"25:R,JD130:A",True,False,False,257 ROUTE DE GENAS,Villeurbanne,69266.0,1,4.905709043757,45.751502987982
47226,Aubépins,"25:A,C26:R",True,False,False,93 RUE FERDINAND BUISSON,Lyon 3e Arrondissement,69383.0,1,4.892732969507,45.750870967502
23350,Chaussan Le Pré Maillard,"JD719:A,JD719:R,JD725:A,JD725:R",False,,,,,,3,4.642469,45.630296
10219,André Lassagne,"33:R,77:R,9:R,JD209:A,JD61:A,JD63:A,S5:R",True,False,False,19 AVENUE GENERAL DE GAULLE,Caluire-et-Cuire,69034.0,1,4.853400420238,45.80520534496
10638,Pont Churchill RD,"38:R,JD202:R,JD203:R",True,False,False,60 MONTEE DE LA BOUCLE,Lyon 4e Arrondissement,69384.0,1,4.840695769412,45.779745443472
1064,Grand Chassagnon,"60:A,JD22:A",False,False,False,8 RUE DU 19 MARS 1962,Vénissieux,69259.0,1,4.863758528804,45.701295441268
10680,Ste Hélène,S1:R,False,False,False,28 RUE DE LA CHARITE,Lyon 2e Arrondissement,69382.0,1,4.832002705498,45.753736296306
10683,Simon Maupin,S1:A,True,False,False,99 RUE PRESIDENT EDOUARD HERRIOT,Lyon 2e Arrondissement,69382.0,1,4.833948284832,45.75892275286
10684,Simon Maupin,S1:R,False,False,False,20 RUE GASPARIN,Lyon 2e Arrondissement,69382.0,1,4.833177475822,45.75837281698
10706,Invalides Hôp. P. Garraud,"45:R,65:A,C20:R,C20E:R,JD975:A",True,False,False,95 RUE COMMANDANT CHARCOT,Sainte-Foy-lès-Lyon,69202.0,1,4.789656061133,45.747042033349
10748,St Germain Village,"96:R,96:A,JD242:A,JD242:R",True,False,False,21 AVENUE DE LA RESISTANCE,Saint-Germain-au-Mont-d'Or,69207.0,2,4.804545011242,45.879670973323
1075,Grandclément,C26:R,False,False,False,113 RUE DU 1 MARS 1943,Villeurbanne,69266.0,1,4.889012949477,45.760089998602
23351,Chaussan Le Richoud,JD714:A,False,,,,,,3,4.646259,45.642939
1022,Genas - Bonnevay,C8:A,True,False,False,601 BOULEVARD LAURENT BONNEVAY INTERIEUR,Villeurbanne,69266.0,1,4.908078039467,45.75163246868
10220,Chemin de Montgay,33:R,False,False,False,13 CHEMIN DE MONTGAY,Fontaines-sur-Saône,69088.0,1,4.861526252517,45.82463711718
10221,Chemin de Montgay,33:A,False,False,False,22 CHEMIN DE MONTGAY,Fontaines-sur-Saône,69088.0,1,4.861709946589,45.824275004654
10223,Curie,33:A,True,False,False,2 RUE CURIE,Fontaines-sur-Saône,69088.0,1,4.865037938534,45.822997966776
10228,Chemin de Rivery,"77:A,JD73:A,JD81:R,JD81:A",False,False,False,55 CHEMIN DES EPINETTES,Sathonay-Village,69293.0,1,4.870695047757,45.837553029574
10229,Chemin de Rivery,"77:R,JD73:R,JD79:R",False,False,False,55 CHEMIN DES EPINETTES,Sathonay-Village,69293.0,1,4.871447004562,45.837354970004
10236,Fontaines-St Martin Ctre,"77:A,JD76:A,JD76:R",True,False,False,1 PLACE DU 8 MAI 1945,Fontaines-Saint-Martin,69087.0,1,4.854315617216,45.84485396624
10237,Fontaines-St Martin Ctre,"77:R,JD79:R,JD814:R",True,False,False,10 PLACE DE L EGLISE,Fontaines-Saint-Martin,69087.0,1,4.854311406631,45.845043090122
10239,Brossolette Genas,C15:A,True,False,False,177 RUE DE LA POUDRETTE,Vaulx-en-Velin,69256.0,1,4.917844612451,45.748770876348
47232,Lardillet,"17:R,78:R,JD741:A",True,False,False,64 ROUTE DE VOURLES,Saint-Genis-Laval,69204.0,1,4.790236955829,45.68536700035
47233,Provinces - Chavril,"49:R,6:R,6E:R",True,False,False,55 BOULEVARD DES PROVINCES,Sainte-Foy-lès-Lyon,69202.0,1,4.800040023358,45.747288997354
47234,Le Moulin,"15:R,15:A",True,False,False,23 RUE DES HAUTS DE SELETTES,Oullins-Pierre-Bénite,69149.0,1,4.823735050228,45.695080000428
47235,Les Vergers,15:R,True,False,False,40 RUE DES HAUTS DE SELETTES,Irigny,69100.0,1,4.818112054956,45.662022011193
47236,Gorge de Loup,C21:R,True,False,False,1 RUE PROFESSEUR GUERIN,Lyon 9e Arrondissement,69389.0,1,4.805309987568,45.766230963884
47237,St Genis 2,"12:R,C10:A",True,False,False,90 AVENUE CHARLES DE GAULLE,Saint-Genis-Laval,69204.0,1,4.793084985807,45.682032964055
47238,Casimir Perier,"63:A,PL2:R",True,False,False,37 QUAI PERRACHE,Lyon 2e Arrondissement,69382.0,1,4.824224021701,45.741424003903
47242,Gabriel Rosset,"34:A,64:A,PL3:A",True,False,False,76 RUE CHALLEMEL LACOUR,Lyon 7e Arrondissement,69387.0,1,4.840852974614,45.72976496869
47243,St Fons Semard,"64:R,64:A",True,False,False,AVENUE DES FRERES PERRET,Saint-Fons,69199.0,1,4.845048062439,45.694281002657
47250,Pagère Vivaldi,24:A,True,False,False,35 RUE DE LA PAGERE,Bron,69029.0,1,4.915797059844,45.745990020254
23359,La Mure,"165:R,JD746:R,JD756:R,JD782:R",False,,,,,,2,4.792835,45.654483
1078,Grandclément,C26:A,True,False,False,121 RUE DU 1 MARS 1943,Villeurbanne,69266.0,1,4.888948037137,45.760038005652
10796,Cité Tase,"68:R,JD136:A",False,False,False,60 AVENUE ROGER SALENGRO,Vaulx-en-Velin,69256.0,1,4.927872909851,45.757766451251
23360,La Mure,"165:A,JD746:A,JD756:A,JD782:A",False,,,,,,2,4.792401,45.654582
23361,Charly Primeveres,"165:A,JD746:A,JD756:A,JD782:A",False,,,,,,2,4.78426,45.655168
10797,Cité Tase,"52:R,68:R,JD135:R,JD136:R,ZI5:R",True,False,False,61 AVENUE ROGER SALENGRO,Vaulx-en-Velin,69256.0,1,4.928755008558,45.758326961337
10802,Sept Chemins,"68:R,JD125:R,JD137:A,ZI5:R",True,False,False,3 AVENUE JEAN MERMOZ,Chassieu,69271.0,1,4.933131092366,45.744385614688
23362,Charly Primeveres,"165:R,JD746:R,JD756:R,JD782:R",False,,,,,,2,4.784717,45.654597
23363,Charly Chemin du Repos,"165:A,JD746:A,JD756:A",False,,,,,,2,4.792884,45.64191
1024,Genas La Grande Plaine,"128:R,JD130:A,JD25:A,JD294:R,JD941:A,JD943:A",True,False,False,4 RUE PASTEUR,Genas,69277.0,2,5.020973948811,45.728613981942
10243,Dupeuble,69:A,True,False,False,15 RUE MICHEL DUPEUBLE,Villeurbanne,69266.0,1,4.890884971126,45.775696014367
10244,Dupeuble,69:R,False,False,False,42 RUE MICHEL DUPEUBLE,Villeurbanne,69266.0,1,4.892463210337,45.776157980808
23383,Chabanière Petite Grange,"JD708:A,JD797:A",False,,,,,,3,4.599212,45.576933
23431,Givors Picard,"220:A,JD711:A,JD724:R,JD725:R",True,,,,,,2,4.770384,45.592074
23432,Givors Picard,"220:R,JD711:R,JD720:R,JD724:A,JD725:A,JD728:R",True,,,,,,2,4.770265,45.59205
10245,Pailleron,C13:R,True,False,False,59 RUE GRANDE DE LA CROIX ROUSSE,Lyon 4e Arrondissement,69384.0,1,4.832240002169,45.778860959032
10246,Ivry,"C13:R,S4A:R",True,False,False,7 RUE GRANDE DE LA CROIX ROUSSE,Lyon 4e Arrondissement,69384.0,1,4.832294005748,45.776845007946
1084,Grandvaux,"55:A,JD151:A",False,False,False,25 AVENUE DU DOCTEUR TERVER,Écully,69081.0,1,4.777666640365,45.772338873987
10845,Craponne Val d'Yzeron,"C22:R,C22E:R,JD162:A,JD173:A",True,False,False,61 RUE DU 8 MAI 1945,Craponne,69069.0,1,4.716498954432,45.737972450289
1085,Grandvaux,55:R,False,False,False,18 AVENUE DU DOCTEUR TERVER,Écully,69081.0,1,4.776652940893,45.771523805038
10854,Pont Gallieni RG,"34:A,60:A,BR60:A,JD982:A",True,False,False,5B AVENUE LECLERC,Lyon 7e Arrondissement,69387.0,1,4.833258091754,45.747398526011
109,Badel,"72:R,JD789:A",True,False,False,151 RUE MARCEL MERIEUX,Sainte-Consorce,69190.0,2,4.702439048577,45.770799000795
11728,Décines Esplanade,"JD121:R,JD135:A,JD136:A,JD294:A,JD940:A,JD940:R,JD971:A",True,False,False,368 AVENUE JEAN JAURES,Décines-Charpieu,69275.0,1,4.97477804104,45.772373954823
12042,Lycée François Cevert,"19:R,JD151:R,JD172:A,JD840:A",True,False,False,53 CHEMIN DE LA SAUVEGARDE,Écully,69081.0,1,4.788989506749,45.782812504348
12047,Moulin Berger,"10:R,89:R,89D:R",True,False,False,12BIS ROUTE DU PEROLLIER,Dardilly,69072.0,1,4.767616627149,45.801045138414
12162,Les Blés d'Or,"87:A,JD3:A,JD3:R",True,False,False,27 RUE ALBERT FERRUS,Mions,69283.0,1,4.945562474629,45.667628892727
12169,J.Ambre Hôp. entr.piéton,C13:R,True,False,False,87 RUE GRANDE DE LA CROIX ROUSSE,Lyon 4e Arrondissement,69384.0,1,4.832561006164,45.780741030173
1272,Jonage Le Vivier,"95:R,JD123:A,JD136:A,JD946:A",False,False,False,104 RUE NATIONALE,Jonage,69279.0,2,5.053511001745,45.79869298525
1284,Décines Jules Ferry,"16:R,JD121:R",True,False,False,175 RUE EMILE ZOLA,Décines-Charpieu,69275.0,1,4.96078218497,45.763987395371
1285,Kellermann,17:A,True,False,False,42 AVENUE JEAN JAURES,Oullins-Pierre-Bénite,69149.0,1,4.818997033291,45.715935965343
1286,Kellermann,17:R,True,False,False,34 AVENUE JEAN JAURES,Oullins-Pierre-Bénite,69149.0,1,4.819003036371,45.7161659914
1320,La Borelle,"35:A,93:A,BRT4:A",True,False,False,90 BOULEVARD IRENE JOLIOT CURIE,Vénissieux,69259.0,1,4.882041019919,45.711071540048
10247,Eglise Demi-Lune,"45:R,55:A",True,False,False,230 AVENUE BARTHELEMY BUYER,Lyon 9e Arrondissement,69389.0,1,4.786951918636,45.764224719701
1025,Genas La Grande Plaine,"128:A,JD130:R,JD25:R,JD294:A,JD941:R,JD943:R",True,False,False,4 RUE PASTEUR,Genas,69277.0,2,5.020931189339,45.728583228133
10252,Gorge de Loup,"98:A,98E:A",True,False,False,1 RUE PROFESSEUR GUERIN,Lyon 9e Arrondissement,69389.0,1,4.804685915834,45.766788710931
10258,Mailly,"38:R,C13:A",True,False,False,1 RUE DE MAILLY,Caluire-et-Cuire,69034.0,1,4.833267958297,45.783034232897
10259,Prairie,"7:A,JD918:A",True,False,False,87 RUE DES JARDINS,Villeurbanne,69266.0,1,4.902576962239,45.774774992519
1026,Danton - République,"C200:A,JD120:A,JD130:R,JD19:A,JD25:A,JD251:A,JD294:R,JD941:A,JD943:A",False,False,False,62 RUE DE LA REPUBLIQUE,Genas,69277.0,2,5.002524946725,45.731619968713
10260,Prairie,"7:R,JD918:R",True,False,False,96 RUE DES JARDINS,Villeurbanne,69266.0,1,4.902454990335,45.774484960072
47251,Bron Jean Jaurès,"24:A,79:A",True,False,False,57 RUE JEAN JAURES,Bron,69029.0,1,4.905161041686,45.729929980796
47253,Louis Braille,"128:A,C25:A",True,False,False,13 RUE LOUIS BRAILLE,Saint-Priest,69290.0,1,4.949795036323,45.695953015395
47254,Varichon,C25:R,True,False,False,9 AVENUE PAUL SANTY,Lyon 8e Arrondissement,69388.0,1,4.870803023545,45.734905043667
47255,Part-Dieu Servient,C25:A,True,False,False,165 RUE GARIBALDI,Lyon 3e Arrondissement,69383.0,1,4.852281000731,45.760177021131
10264,Crépieux-la-Pape,"A32:R,A71:R,JD972:A,S8:R",True,False,False,28 ROUTE DE GENEVE,Rillieux-la-Pape,69286.0,1,4.885180063958,45.805547015056
10855,Pont Gallieni RG,"34:R,60:R,BR60:R,JD982:R",True,False,False,1 AVENUE LECLERC,Lyon 7e Arrondissement,69387.0,1,4.833120873359,45.746924513044
1343,La Chopinette,"C20:A,C20E:A,JD211:R,JD211:A,JD652:R",True,False,False,5 CHEMIN DU FORT,Francheville,69089.0,1,4.743610965879,45.730246969445
1344,La Chopinette,"C20:R,C20E:R,JD652:A",True,False,False,2 CHEMIN DES COQUILLES,Francheville,69089.0,1,4.74368031639,45.730804166628
30013,La Ferlatière,"23:A,JD185:R,JD204:A,JD57:A,JD696:R,JD973:R",True,False,False,100 ROCADE DES MONTS D OR,Saint-Didier-au-Mont-d'Or,69194.0,1,4.807649946482,45.818732998017
47270,Chassieu Mairie,"68:A,76:A,JD125:A,JD940:A",True,False,False,53 RUE DE LA REPUBLIQUE,Chassieu,69271.0,1,4.971863946076,45.742874045886
47271,Arsonval,62:A,True,False,False,35 RUE D ARSONVAL,Saint-Priest,69290.0,1,4.93085197397,45.70085603946
47274,Henaff - Charbonnier,ZI1:R,False,False,False,92 CHEMIN DU CHARBONNIER,Vénissieux,69259.0,1,4.907799005311,45.691160998252
47276,Campus de l'Etoile,"98:A,98E:A",True,False,False,100 ALLEE LOUIS PASTEUR,Marcy-l'Étoile,69127.0,2,4.713496795189,45.785128327253
47277,Campus de l'Etoile,"98:R,98E:R",True,False,False,100 ALLEE LOUIS PASTEUR,Marcy-l'Étoile,69127.0,2,4.713695036652,45.785250144364
47278,Marcy INTEFP,"72:R,GE6:A",True,False,False,1200 ROUTE DE SAIN BEL,Marcy-l'Étoile,69127.0,2,4.714244982208,45.786733996593
47327,Cyprian - Léon Blum,"C11:R,PL4:R,TB11:R",True,False,False,107 RUE LEON BLUM,Villeurbanne,69266.0,1,4.900469000227,45.760300032467
21184,St-Cyr-Le-Chatoux Le Parasoir,265:R,False,,,,,,4,4.553084,46.031636
10277,Chauderaie,"14:R,JD975:A",True,False,False,27 AVENUE DU CHATER,Francheville,69089.0,1,4.771987107863,45.743127869234
10278,Les Genêts,14:A,True,False,False,13 AVENUE DU CHATER,Francheville,69089.0,1,4.772477999831,45.74799098992
10279,Les Genêts,14:R,True,False,False,16 AVENUE DU CHATER,Francheville,69089.0,1,4.772404045942,45.747606991586
10280,Alai,C22E:R,True,False,False,247 AVENUE CHARLES DE GAULLE,Tassin-la-Demi-Lune,69244.0,1,4.766995691077,45.751489955648
10900,Henaff,54:A,True,False,False,62 ROUTE DE CORBAS,Vénissieux,69259.0,1,4.89183639587,45.686257097031
21423,Lamure-Sur-Azergues Les Arnauds,JD360:A,False,,,,,,5,4.485002,46.039829
21424,Lamure-Sur-Azergues Collège,"265:A,JD358:R,JD359:R,JD361:A,JD362:A,JD363:A,JD376:R,JD429:A",True,,,,,,5,4.493109,46.052253
21425,Lamure-Sur-Azergues Collège,"265:R,JD358:A,JD359:A,JD360:R,JD360:A,JD361:R,JD362:R,JD363:R,JD376:A,JD429:R",True,,,,,,5,4.493134,46.052329
21426,Lamure/Az. Pl. de la Mairie,"265:A,JD361:A,JD376:R",True,,,,,,5,4.492053,46.063233
21465,Thizy-Les-B. CDM. La Montagne,JD353:R,False,,,,,,5,4.345204,46.057249
21657,Vindry/Turd. STL. Pied Vindry,"217:R,JD421:A,JD422:A,JD423:A",False,,,,,,4,4.469861,45.88456
10901,Henaff,54:R,True,False,False,62 ROUTE DE CORBAS,Vénissieux,69259.0,1,4.892364010109,45.685801035416
10915,Z.I. Frères Lumière,43:A,True,False,False,482 AVENUE DES FRERES LUMIERE,Genay,69278.0,2,4.81815789669,45.886658600022
10916,Z.I. Jacquard,43:R,True,False,False,270 RUE JACQUARD,Genay,69278.0,2,4.817073937462,45.88777165585
1095,Grange Blanche,"C26:R,C26:A",True,False,False,1 PLACE D ARSONVAL,Lyon 3e Arrondissement,69383.0,1,4.879132941786,45.742975314237
10964,Caluire Place Foch,"77:R,JD61:A",True,False,False,159 RUE PASTEUR,Caluire-et-Cuire,69034.0,1,4.850895703823,45.797718282951
10966,Neuville,"82:R,84:R,JD185:A,R2:R",False,False,False,9 QUAI PASTEUR,Neuville-sur-Saône,69143.0,1,4.838588172486,45.87592665718
21658,Vindry-/-Turdine STL. Vindry,"JD410:A,JD425:A",False,,,,,,4,4.485907,45.885592
23475,Leclerc - Girondins,220:R,True,,,,,,1,4.825982,45.739432
23476,Bastéro - Aquarium,220:A,True,,,,,,1,4.814095,45.725478
11006,Ecully Centre,"3:A,55:A,JD31:R,S15:R",True,False,False,9 PLACE CHARLES DE GAULLE,Écully,69081.0,1,4.778016959517,45.774791967722
23477,Bastéro - Aquarium,"220:R,JD970:R",True,,,,,,1,4.814452,45.726513
23478,Pont de la Mulatière,"220:A,JD751:A",True,,,,,,1,4.815819,45.730038
23479,La Mulatiere Parking Aquarium,"JD750:R,JD751:R,JD752:R",False,,,,,,1,4.815816,45.728786
1357,La Creuzette,70:A,True,False,False,5 MONTEE ROY,Fontaines-sur-Saône,69088.0,1,4.855369394569,45.831040212867
1374,La Favorite,"C20:R,C21:R,JD100:A,JD92:R,PL3:A",True,False,False,37 RUE DE LA FAVORITE,Lyon 5e Arrondissement,69385.0,1,4.806814039055,45.756533000052
25879,Lentilly - Mosouvre,"JD580:R,JD631:A",,,,,,,2,4.6402,45.8151
1375,La Favorite,"46:A,C21:A,JD92:A",True,False,False,25 AVENUE DU POINT DU JOUR,Lyon 5e Arrondissement,69385.0,1,4.804928863756,45.756153027855
10308,Ménival Sainte Anne,"14:R,72:A",True,False,False,0 BOULEVARD DES HESPERIDES,Tassin-la-Demi-Lune,69244.0,1,4.782088986881,45.757181012277
10309,Ménival Sainte Anne,"14:A,65:R,72:R,C22:R,C24:R",True,False,False,0 BOULEVARD DES HESPERIDES,Tassin-la-Demi-Lune,69244.0,1,4.78222601665,45.757098998351
10311,Brosset,"14:A,72:R,JD975:A",True,False,False,30 AVENUE GENERAL BROSSET,Tassin-la-Demi-Lune,69244.0,1,4.779002750315,45.757242069751
47334,Montesquieu,93:R,True,False,False,60 RUE MATHIEU DUSSURGEY,Saint-Fons,69199.0,1,4.861477052008,45.712273017135
47335,Tannerie,93:A,True,False,False,16 RUE ROBERT REYNIER,Saint-Fons,69199.0,1,4.860851996074,45.709404064937
47337,Gymnase Alain Colas,39:A,True,False,False,7 AVENUE JEAN MOULIN,Vénissieux,69259.0,1,4.875497951543,45.688514991266
23480,Pont de la Mulatière,"220:R,JD752:A,JD970:R",True,,,,,,1,4.81522,45.730274
10312,Les Croisettes,JD675:R,True,False,False,24 RUE FRANCOIS MERMET,Tassin-la-Demi-Lune,69244.0,1,4.767928833542,45.758931577574
1101,Grange Haute,"15:R,18:R,JD267:A",True,False,False,26 RUE BAUDRAND,Irigny,69100.0,1,4.822838019702,45.675302959864
11017,Corbas Rue du Midi,"54:A,76:A,JD11:A",True,False,False,12 RUE DU MIDI,Corbas,69273.0,1,4.89899797503,45.659963971269
1102,Grange Rouge - Santy,C25:A,True,False,False,70 AVENUE PAUL SANTY,Lyon 8e Arrondissement,69388.0,1,4.874142043085,45.731206461477
23481,Millery Carrefour des Grès,"JD726:R,JD756:A",False,,,,,,2,4.778163,45.62981
11025,Vénissieux Allende,35:R,True,False,False,96 RUE PRESIDENT SALVADOR ALLENDE,Vénissieux,69259.0,1,4.901656944461,45.696973983841
11029,La Fouillouse,"50:R,50:A,JD8:A,JD8:R",False,False,False,1 PLACE DE LA FOUILLOUSE,Saint-Priest,69290.0,1,4.98368196843,45.686699987727
23482,Millery Carrefour des Grès,"JD726:A,JD782:R",False,,,,,,2,4.778075,45.629849
23483,Millery Croix Maladière,"165:A,JD726:R,JD746:A,JD756:A,JD782:A,JD970:A",False,,,,,,2,4.788301,45.634289
23484,Millery Croix Maladière,"165:R,JD726:A,JD746:R,JD756:R,JD782:R,JD970:R",False,,,,,,2,4.788492,45.634658
28505,Les Cheres En Braille,"215:A,JD478:A",,,,,,,2,4.7466,45.8783
28506,Les Cheres En Braille,"215:R,JD478:R",,,,,,,2,4.7461,45.8801
28507,Les Cheres Gare Sncf,"JD617:A,JD621:A",,,,,,,2,4.7509,45.8861
11031,Cimetière Bas,50:R,False,False,False,14 ROUTE DE TOUSSIEU,Saint-Priest,69290.0,1,4.981143037171,45.698742065077
11033,Savoie,"131:A,50:R,JD8:A",False,False,False,73 RUE DE SAVOIE,Saint-Priest,69290.0,1,4.981740344405,45.701014414567
28508,Les Cheres Gare Sncf,"JD617:R,JD621:R",,,,,,,2,4.7509,45.8861
11036,Jules Verne,"131:R,50:A",True,False,False,63 RUE JULES VERNE,Saint-Priest,69290.0,1,4.974244062291,45.702217152864
11079,Route de Lyon,"54:A,JD976:R",True,False,False,72 ROUTE DE LYON,Corbas,69273.0,1,4.895540442462,45.677801359125
28517,Letra La Gabaudière,"JD446:A,JD469:A",,,,,,,4,4.516,45.9616
28518,Letra La Gabaudière,"JD446:R,JD469:R",,,,,,,4,4.516,45.9616
1108,Greillon,"19:A,31:A,40:A,C14:A,JD974:R",True,False,False,15 QUAI PIERRE SCIZE,Lyon 9e Arrondissement,69389.0,1,4.814891077223,45.767212037933
1420,La Mouche,"15:A,18:A",True,False,False,57 RUE DE LA MOUCHE,Irigny,69100.0,1,4.820769949712,45.694714024692
1421,La Mouche,"15:R,18:R",True,False,False,50 RUE DE LA MOUCHE,Irigny,69100.0,1,4.820819038064,45.694743001044
1508,Laurent Bonnevay,"PL4:R,TB11:A,TB11:R",True,False,False,419 COURS EMILE ZOLA,Villeurbanne,69266.0,1,4.908851425582,45.764873982362
10329,Marengo,69:A,True,False,False,31 RUE RICHELIEU,Villeurbanne,69266.0,1,4.87718747028,45.759590921781
47342,Genay Lavoir,"43:A,JD243:A,JD243:R,JD78:R",True,False,False,179 RUE DES ECOLES,Genay,69278.0,2,4.838961999855,45.897244985135
47343,Z.I. Frères Lumière,43:R,True,False,False,25 RUE JACQUARD,Genay,69278.0,2,4.818439964234,45.886291967092
47347,Rue de Montrond,"80:A,81:R",True,False,False,56 RUE DU MOULIN,Givors,69091.0,2,4.761316023132,45.586895967908
28980,Trevoux La Sidoine,JD899:R,,,,,,,Zone Externe,4.7855,45.9373
47348,Rue de Montrond,"80:R,81:A",True,False,False,56 RUE DU MOULIN,Givors,69091.0,2,4.761490065455,45.586720013784
29011,Vauxrenard Ecole,JD385:A,,,,,,,5,4.6427,46.2088
29012,Vauxrenard Ecole,JD385:R,,,,,,,5,4.6427,46.2088
29013,Vauxrenard Croix Baraud,"JD313:A,JD385:A",,,,,,,5,4.6616,46.2117
29014,Vauxrenard Croix Baraud,"JD313:R,JD385:R",,,,,,,5,4.6616,46.2117
11088,Constant,C8:R,True,False,False,85 RUE TRARIEUX,Lyon 3e Arrondissement,69383.0,1,4.888344031113,45.745411986031
11089,Caluire H. de V. Radiant,"33:A,38:A,JD206:R,S5:A",True,False,False,74 RUE FRANCOIS PEISSEL,Caluire-et-Cuire,69034.0,1,4.843617697061,45.797277824122
11195,Marius Grosso,"16:R,ZI3:A",True,False,False,8 RUE MARIUS GROSSO,Vaulx-en-Velin,69256.0,1,4.930319245443,45.763011904136
1120,Saxe - Préfecture,"C14:R,C5:R,PL3:R",True,False,False,100 AVENUE MARECHAL DE SAXE,Lyon 3e Arrondissement,69383.0,1,4.845839345572,45.759116701617
11209,Pierre Gay,76:R,True,False,False,12 RUE PIERRE GAY,Décines-Charpieu,69275.0,1,4.973340031521,45.760219961406
1121,Saxe - Préfecture,"C14:A,C5:A,PL3:A",True,False,False,101 AVENUE MARECHAL DE SAXE,Lyon 3e Arrondissement,69383.0,1,4.845818721298,45.759792258773
23489,Millery Ninon Vallin,"165:A,JD726:R,JD746:A,JD756:A,JD782:A,JD970:A",True,,,,,,2,4.78342,45.631941
28902,St-Igny-De-V. Les Grands Pres,JD302:R,,,,,,,5,4.4446,46.2387
28899,St-Igny-De-V. Les Barres,"JD302:A,JD381:A",,,,,,,5,4.4158,46.2473
28900,St-Igny-De-V. Les Barres,"JD302:R,JD381:R",,,,,,,5,4.4158,46.2473
28909,St-Jean-Des-Vignes Rotaval,"JD467:A,JD602:A,JD615:A",,,,,,,2,4.6838,45.8671
28910,St-Jean-Des-Vignes Rotaval,"JD467:R,JD602:R,JD615:R",,,,,,,2,4.6838,45.8671
28911,Saint-Julien Monument,JD326:A,,,,,,,4,4.6515,46.0258
29042,Villefranche Collège Faubert,"231:R,JD334:R",,,,,,,4,4.7216,45.991
11210,Pierre Gay,76:A,True,False,False,12 RUE PIERRE GAY,Décines-Charpieu,69275.0,1,4.973409831755,45.7607209806
11213,Gare Part-Dieu V.Merle,JD980:A,True,False,False,39 BOULEVARD MARIUS VIVIER MERLE,Lyon 3e Arrondissement,69383.0,1,4.857683477358,45.761650792035
11215,Maisons Neuves,"69:R,C11:A,C9:A",True,False,False,22 RUE FREDERIC MISTRAL,Lyon 3e Arrondissement,69383.0,1,4.876246028287,45.756365957904
11222,Eglise Demi-Lune,"45:A,55:R",True,False,False,230 AVENUE BARTHELEMY BUYER,Lyon 9e Arrondissement,69389.0,1,4.786606956589,45.764165998802
11238,Les Tourelles,40:A,False,False,False,37 QUAI JEAN BAPTISTE SIMON,Fontaines-sur-Saône,69088.0,1,4.858035777903,45.819557662181
11239,Les Tourelles,40:R,False,False,False,37 QUAI JEAN BAPTISTE SIMON,Fontaines-sur-Saône,69088.0,1,4.858015833191,45.819684129153
11240,Marengo,"69:R,C11:A,C9:A",True,False,False,58 AVENUE MARC SANGNIER,Villeurbanne,69266.0,1,4.876288978887,45.758792121936
29063,Villefranche Sécu. Sociale,"215:A,236:A,JD464:A,JD465:A,JD466:A,JD467:A,JD469:A,JD470:A,JD471:A,JD474:A,JD476:A,JD477:A,JD478:A,JD479:A",True,,,,,,4,4.715,45.9908
29066,Villefranche St Exupery,"236:R,JD461:R,JD462:R,JD465:R,JD466:R,JD480:R",True,,,,,,4,4.7131,45.9911
29037,Villefranche Burie,"231:A,JD334:A",True,,,,,,4,4.7191,45.9964
29038,Villefranche Burie,"231:R,JD334:R",True,,,,,,4,4.7192,45.9966
47349,La Freydière,"80:R,81:A",True,False,False,0 RUE DE MONTROND,Givors,69091.0,2,4.763425045957,45.585378012801
47382,Vaulx - La Grappinière,"37:A,7:A",True,False,False,80 AVENUE DU 8 MAI 1945,Vaulx-en-Velin,69256.0,1,4.913111040726,45.78810402839
47383,Cornavent,"16:A,JD971:R",True,False,False,31 RUE DE L EGALITE,Décines-Charpieu,69275.0,1,4.967403994523,45.76912600888
47384,Colin,"37:A,69:R,JD981:R",True,False,False,66BIS AVENUE ROGER SALENGRO,Villeurbanne,69266.0,1,4.874926987524,45.776631022203
47385,Challemel Lacour Artill.,"34:A,64:A,PL3:A",True,False,False,112 RUE CHALLEMEL LACOUR,Lyon 7e Arrondissement,69387.0,1,4.843553032344,45.729541040015
47386,Vaulx Pasteur,"37:A,57:A",False,False,False,118 RUE DE LA REPUBLIQUE,Vaulx-en-Velin,69256.0,1,4.930275989757,45.785461041245
47387,Général Benoist,"52:R,52E:R",True,False,False,12 RUE DU 35EME REGIMENT D AVIATION,Bron,69029.0,1,4.928873965653,45.738260957698
47389,Meyzieu Hôtel de Ville,"67:A,JD122:R,JD135:A",True,False,False,1 RUE D AQUITAINE,Meyzieu,69282.0,1,5.005830035593,45.765271959747
11414,Genay Le Perron,"JD243:R,JD78:A",False,,,,,,2,4.831707197733,45.890967712821
11725,La Mure,JD6:R,False,,,,,,2,4.79285389771,45.654472292911
1625,Les Biesses,JD136:A,False,,,,,,2,5.036926351469,45.792878880714
34573,St-Priest Ctre Culturel,"JD133:R,JD8:R",False,,,,,,1,4.941333587006,45.696856213036
34574,St-Priest Ctre Culturel,"JD133:A,JD8:A",False,,,,,,1,4.940542285876,45.696964604306
3476,St-Priest Alouettes,131:A,False,,,,,,1,4.918417862403,45.702624959112
39098,St Genis Ancienne Poste,JD177:R,False,,,,,,1,4.72461251865,45.758178014285
39105,Le Guillot,JD161:R,False,,,,,,1,4.730597678201,45.760084758682
10364,Décines Verlaine,"79:R,JD137:A,JD137:R,ZI3:R",True,False,False,99 RUE ELISEE RECLUS,Décines-Charpieu,69275.0,1,4.941473024673,45.751246006186
10365,Décines Beauregard,"79:A,JD137:R",True,False,False,148 RUE ELISEE RECLUS,Décines-Charpieu,69275.0,1,4.945387530928,45.753148069122
10366,Décines Beauregard,"79:R,JD137:A,JD137:R",True,False,False,136 RUE ELISEE RECLUS,Décines-Charpieu,69275.0,1,4.944033367069,45.752792458833
10367,Décines Jonquilles,"79:A,JD137:R",True,False,False,101 AVENUE DES JONQUILLES,Décines-Charpieu,69275.0,1,4.948776464099,45.75546370663
10368,Décines Jonquilles,"79:R,JD137:R,JD137:A",True,False,False,101 AVENUE DES JONQUILLES,Décines-Charpieu,69275.0,1,4.948811193044,45.755111833732
10369,Décines Acacias,"79:A,JD137:R",True,False,False,11 AVENUE DES JONQUILLES,Décines-Charpieu,69275.0,1,4.948841892178,45.759278890278
1037,Genay Le Perron,"JD243:A,JD78:R,S14:A",False,False,False,28 RUE DU CEDRE,Genay,69278.0,2,4.832896034093,45.891131009692
10370,Décines Acacias,"79:R,JD137:A,JD137:R",True,False,False,11 AVENUE DES JONQUILLES,Décines-Charpieu,69275.0,1,4.948674113955,45.758724690446
47410,Jonage Le Vivier,"95:A,JD123:R,JD946:R",False,False,False,104 RUE NATIONALE,Jonage,69279.0,2,5.053650039695,45.798686022027
47411,Musset - Poudrette,"C15:R,C8:R,JD136:A",True,False,False,81 RUE DE LA POUDRETTE,Villeurbanne,69266.0,1,4.921196993958,45.756988042334
47412,Teillon - Poudrette,C15:A,True,False,False,182 RUE DE LA POUDRETTE,Vaulx-en-Velin,69256.0,1,4.918707994018,45.750841988054
47413,Cité de l'Enfance - IDEF,"26:R,C15:R,C17:R,PL1:A",True,False,False,69 RUE LIONEL TERRAY,Bron,69029.0,1,4.907374944281,45.726048978523
47414,Mermoz - Moselle,"C15:R,PL1:A",True,False,False,111 AVENUE JEAN MERMOZ,Lyon 8e Arrondissement,69388.0,1,4.882708065026,45.732217004005
10371,Georges Brassens,76:A,True,False,False,43 RUE SULLY,Décines-Charpieu,69275.0,1,4.97535664905,45.768596805244
10861,Joannès Masset,66:A,True,False,False,76 RUE GORGE DE LOUP,Lyon 9e Arrondissement,69389.0,1,4.801250977875,45.769495993899
1087,Grange Blanche,"C13:R,C26:A",True,False,False,1 PLACE D ARSONVAL,Lyon 3e Arrondissement,69383.0,1,4.878841265531,45.742783890382
10888,Pont Wilson,"A32:A,A71:A,JD972:R,PL2:A",True,False,False,10 QUAI JULES COURMONT,Lyon 2e Arrondissement,69382.0,1,4.83808997102,45.76063980759
11247,Avenue des Avoraux,"82:A,84:A,JD185:R,R2:A",True,False,False,7 ROUTE DES MONTS D OR,Albigny-sur-Saône,69003.0,1,4.829416856972,45.875167077945
39294,Cimetière de Corbas,JD11:R,False,,,,,,1,4.900971595707,45.675030857865
10376,Rue de France - IUT,69:A,True,False,False,231 COURS EMILE ZOLA,Villeurbanne,69266.0,1,4.886039964433,45.76829799333
10378,Aynard - La Fontaine,69:R,True,False,False,18 RUE EDOUARD AYNARD,Villeurbanne,69266.0,1,4.876436289453,45.761147155566
1038,Genay Madone,"43:A,JD243:A,JD78:R",True,False,False,54 ROUTE DE NEUVILLE,Genay,69278.0,2,4.834364274235,45.89553548617
39339,Bas Privas,"JD15:A,JD264:A",False,,,,,,2,4.785086320794,45.648638656856
10383,Choulans - Tourelles,"46:A,49:A,55:A,C19:A,C20:A,C20E:A,C21:A,JD982:R,PL3:A",True,False,False,60 CHEMIN DE CHOULANS,Lyon 5e Arrondissement,69385.0,1,4.819097806345,45.753842368601
10386,Vieux Lyon Cat. St-Jean,"31:A,C20:R,C20E:R,JD974:R",True,False,False,1 QUAI FULCHIRON,Lyon 5e Arrondissement,69385.0,1,4.827710736806,45.759475373306
10387,Vieux Lyon Cat. St-Jean,"27:R,27:A",True,False,False,6 AVENUE ADOLPHE MAX,Lyon 5e Arrondissement,69385.0,1,4.826915414521,45.760087096135
47416,1 Avenue Schneider,ZI2:R,False,False,False,1229 AVENUE HENRI SCHNEIDER,Meyzieu,69282.0,2,5.033516962296,45.779946999979
47417,Vaucanson,ZI3:R,False,False,False,101 AVENUE DES BRUYERES,Décines-Charpieu,69275.0,1,4.943183011734,45.754426020113
39340,Bas Privas,"JD2:R,JD264:R",False,,,,,,2,4.784458886036,45.648670366475
39595,Les Maures,"JD262:R,JD263:R",False,,,,,,1,4.85764466354,45.664275976614
40654,Collège de la Sidoine,"JD241:A,JD241:R,JD242:A,JD242:R,JD243:A,JD243:R,JD244:A,JD244:R",False,,,,,,Zone Externe,4.785263764935,45.937200881386
40656,Albigny Mairie,"JD241:R,JD72:R",False,,,,,,1,4.832189566788,45.870676945947
42275,Louisa Siefert,JD58:R,False,,,,,,1,4.817109162129,45.805274190777
44799,Porcher,"JD54:A,JD55:A",True,False,False,19 RUE PIERRE TERMIER,Lyon 9e Arrondissement,69389.0,1,4.837148975676,45.802249011782
45914,Chaponost Chanvillard,"JD268:R,JD269:R,JD282:R",False,,,,,,2,4.757293284329,45.712734550261
47418,Carré de Soie,C8:R,True,False,False,44 RUE DE LA POUDRETTE,Vaulx-en-Velin,69256.0,1,4.919192017951,45.764086990779
47419,Normandie-Niemen,26:R,True,False,False,355 AVENUE GENERAL DE GAULLE,Bron,69029.0,1,4.935253008666,45.724762023411
47420,Rd Pt Charles de Gaulle,26:R,True,False,False,332 AVENUE GENERAL DE GAULLE,Bron,69029.0,1,4.929693052896,45.726611029415
47421,Echangeur Pte des Alpes,26:A,False,False,False,0 BOULEVARD DE L UNIVERSITE,Bron,69029.0,1,4.92107998754,45.723247030162
11273,Bron Jules Ferry,24:A,True,False,False,63 RUE DES ESSARTS,Bron,69029.0,1,4.896400921355,45.731970133608
11274,Bron Jules Ferry,24:R,True,False,False,52 RUE DES ESSARTS,Bron,69029.0,1,4.896141018379,45.732157980743
11275,Parc du Chêne,"52:A,52E:A,79:A",True,False,False,4 AVENUE FRANCOIS MITTERRAND,Bron,69029.0,1,4.926859984948,45.738985544413
11276,Parc du Chêne,"52:R,52E:R,79:R",True,False,False,8 AVENUE FRANCOIS MITTERRAND,Bron,69029.0,1,4.926411013582,45.739047034168
11287,Jaurès Blum,57:R,False,False,False,11 AVENUE LEON BLUM,Décines-Charpieu,69275.0,1,4.970748281534,45.771207492865
23527,Mornant La Plaine / Madone,JD710:A,False,,,,,,2,4.642701,45.611001
23528,Mornant La Plaine / Madone,JD710:R,False,,,,,,2,4.64262,45.611064
23529,Mornant Pont Rompu,"C205:A,JD723:A,JD724:A,JD727:A",False,,,,,,2,4.689948,45.604927
23530,Mornant Pont Rompu,"C205:R,JD723:R,JD724:R,JD727:R",False,,,,,,2,4.689773,45.605066
23533,Mornant Pont Rompu,"245:A,JD700:A,JD711:A,JD725:R",True,,,,,,2,4.688812,45.604202
23534,Mornant Pont Rompu,"245:R,JD700:R,JD711:R,JD725:A",True,,,,,,2,4.68861,45.604328
23535,Mornant ZA Les Platières,"245:A,C205:A,JD724:A,JD738:A",False,,,,,,2,4.709691,45.618237
11292,Mermoz - Pinel,"131:A,C15:A",True,False,False,156 AVENUE JEAN MERMOZ,Lyon 8e Arrondissement,69388.0,1,4.886216056995,45.73087698416
1133,Guynemer,C25:A,True,False,False,35 RUE DE COLLIERES,Saint-Priest,69290.0,1,4.934519047907,45.683584998132
23536,Mornant ZA Les Platières,"245:R,C205:R,JD724:R,JD738:R",False,,,,,,2,4.709434,45.618224
47422,Galline,69:A,False,False,False,55 AVENUE GALLINE,Villeurbanne,69266.0,1,4.868186974411,45.776331997721
47424,Joliot-Curie - M. Sembat,79:A,True,False,False,34 BOULEVARD MARCEL SEMBAT,Vénissieux,69259.0,1,4.878411000252,45.713851011097
10394,Chardonnet,"52:A,67:R,ZI3:R,ZI4:R",True,False,False,69 AVENUE DE BOHLEN,Vaulx-en-Velin,69256.0,1,4.928876048808,45.766348008932
47426,Pinel Lépine,C9:R,True,False,False,34 BOULEVARD PINEL,Bron,69029.0,1,4.897216973191,45.750034978892
11335,Berliet Porte E,"62:A,93:A",True,False,False,6 RUE DES COMBATS DU 24 AOUT 1944,Vénissieux,69259.0,1,4.891701000893,45.70437993576
47427,Patinoire Baraban,C16:A,True,False,False,55 RUE BARABAN,Lyon 3e Arrondissement,69383.0,1,4.868321021793,45.761586970225
47429,Pressin,11:A,True,False,False,46 ROUTE DE BRIGNAIS,Chaponost,69043.0,1,4.769510994714,45.708555030855
11374,Albert Ferrus,"87:A,JD3:R",True,False,False,23 RUE ALBERT FERRUS,Mions,69283.0,1,4.942391763334,45.664381088824
11375,Albert Ferrus,"87:R,JD3:A",True,False,False,23 RUE ALBERT FERRUS,Mions,69283.0,1,4.942421663325,45.664470408822
1138,Harmonie Campus Pro,C16:R,True,False,False,49 RUE FEUILLAT,Lyon 3e Arrondissement,69383.0,1,4.875270011113,45.747340022431
11389,Tissot,"2:A,31:A,C14:A,C6:A,JD973:R,PL3:A",True,False,False,26 RUE DE BOURGOGNE,Lyon 9e Arrondissement,69389.0,1,4.804055609916,45.776820838646
11390,Claude Joseph Bonnet,"2:A,C18:R",True,False,False,7 RUE PHILIPPE DE LASSALLE,Lyon 4e Arrondissement,69384.0,1,4.821207513727,45.774363439114
1140,Hauteclair,S9:A,False,False,False,47 AVENUE MARECHAL FOCH,Saint-Genis-Laval,69204.0,1,4.78974000617,45.692332035579
47430,Pressin,11:R,True,False,False,129 ROUTE DE BRIGNAIS,Saint-Genis-Laval,69204.0,1,4.770113948807,45.709198031418
47432,Colin,"69:A,C17:R",True,False,False,29 RUE DE LA DOUA,Villeurbanne,69266.0,1,4.874210008311,45.777159044095
45915,Chaponost Chanvillard,JD269:A,False,,,,,,2,4.757206988335,45.712794018027
45916,Chaponost Plat de l'Air,"JD268:A,JD268:R,JD282:R",False,,,,,,2,4.759589051487,45.720583026343
45917,Chaponost Plat de l'Air,JD268:R,False,,,,,,2,4.759639222788,45.720496704165
45921,Brindas - Les Roulattes,JD165:R,False,,,,,,2,4.70425804467,45.709279029321
45922,Le Bouleau,JD165:A,False,,,,,,2,4.713865494247,45.713906193053
47433,CNRS,"C17:R,C26:R",True,False,False,1 AVENUE ALBERT EINSTEIN,Villeurbanne,69266.0,1,4.875410006565,45.780122015157
45998,Fontville,"JD31:R,JD31:A",False,,,,,,1,4.760827501035,45.779580377431
46072,Vallon du Ruisseau,"JD32:A,JD32:R",False,,,,,,1,4.768159268892,45.828645072698
47434,Chantelot,80:A,False,False,False,99 AVENUE DU 19 MARS 1962,Grigny-sur-Rhône,69096.0,2,4.773417983036,45.607222009802
47435,Chantelot,80:R,False,False,False,99 AVENUE DU 19 MARS 1962,Grigny-sur-Rhône,69096.0,2,4.773358035577,45.607330963977
47437,CNRS,"C17:A,C26:A,PL1:A",False,False,False,1 AVENUE ALBERT EINSTEIN,Villeurbanne,69266.0,1,4.87541297462,45.779994037934
47438,Irigny - Gare d'Yvours,"15:A,15E:A",False,False,False,1 IMPASSE LOUIS VERD,Irigny,69100.0,1,4.831822988257,45.68913700144
11411,Z.I. Genay Neuville,43:R,True,False,False,5000 ROUTE DE TREVOUX,Genay,69278.0,2,4.825942943343,45.890494965083
11412,Les Lilas,"43:R,JD243:R,JD78:A",True,False,False,500 ROUTE DE NEUVILLE,Genay,69278.0,2,4.830665993946,45.89271401275
11415,L'Aventurière,"JD243:R,JD78:A,S14:A",True,False,False,39B RUE REY LORAS,Neuville-sur-Saône,69143.0,1,4.835866934466,45.887202852037
1142,Haute Roche Centre,17:R,True,False,False,34 AVENUE DE HAUTE ROCHE,Oullins-Pierre-Bénite,69149.0,1,4.827773154241,45.700084207919
1679,Les Fraisiers,"78:R,JD261:A",True,False,False,1 ROUTE DU MILLENAIRE,Saint-Genis-Laval,69204.0,1,4.787596194422,45.673336367232
47439,Irigny - Gare d'Yvours,"15:R,15E:R",False,False,False,1 IMPASSE LOUIS VERD,Irigny,69100.0,1,4.831912954362,45.689368039024
47442,Maurice Ravel,"39:R,60:R,JD190:A,JD262:R,JD263:R,JD263:A",True,False,False,46 ROUTE DE LYON,Feyzin,69276.0,1,4.861026967017,45.677070963557
10443,Cogny,"3:R,JD151:A,JD176:A,JD33:A,JD841:A",True,False,False,330 ROUTE D ECULLY,Dardilly,69072.0,1,4.75635565821,45.80073913843
47445,C. Cial Porte de Lyon,"3:R,61:A",True,False,False,1920 ROUTE NATIONALE 6,Limonest,69116.0,1,4.76741006414,45.820945012204
15127,Cogny Les Andrés,"JD452:R,JD452:A",,,,,,,4,4.592164,45.991672
47446,Bois Dieu,61:R,True,False,False,0 ROUTE NATIONALE 6,Lissieu,69117.0,2,4.73722999508,45.840165041522
47447,Tassin Depéret,72:R,True,False,False,79 RUE FRANCOIS MERMET,Tassin-la-Demi-Lune,69244.0,1,4.762177038774,45.758269022836
10889,Pont De Lattre RD,"59:R,9:R,A32:R,A71:R,C23:R,PL1:R,PL2:R",True,False,False,0 PLACE LOUIS CHAZETTE,Lyon 1er Arrondissement,69381.0,1,4.838295480552,45.773642057015
1089,Grange Blanche,"34:R,34:A",True,False,False,1 PLACE D ARSONVAL,Lyon 3e Arrondissement,69383.0,1,4.87863748137,45.743103554161
10890,Cours Aristide Briand,"59:R,9:R,JD203:A",True,False,False,25 COURS ARISTIDE BRIAND,Caluire-et-Cuire,69034.0,1,4.843612006998,45.782479795106
10891,Cours Aristide Briand,"59:A,9:A,JD202:R,JD203:R",True,False,False,27 COURS ARISTIDE BRIAND,Caluire-et-Cuire,69034.0,1,4.843960919673,45.782796054115
10892,Bellevue,"59:R,9:R,JD203:A",True,False,False,52 COURS ARISTIDE BRIAND,Caluire-et-Cuire,69034.0,1,4.848281590126,45.78584998738
10893,Bellevue,"59:A,9:A,JD202:R,JD203:R",True,False,False,48 COURS ARISTIDE BRIAND,Caluire-et-Cuire,69034.0,1,4.847739432334,45.78552905944
10894,Petit Versailles,"59:R,9:R,JD203:A",True,False,False,71 RUE GRANDE DE SAINT CLAIR,Caluire-et-Cuire,69034.0,1,4.852616611359,45.788363364425
10896,Les Eaux,"59:R,9:R,JD203:A",True,False,False,117 RUE GRANDE DE SAINT CLAIR,Caluire-et-Cuire,69034.0,1,4.857289748452,45.79010388212
10897,Les Eaux,"59:A,9:A,JD202:R,JD203:R",True,False,False,466 CHEMIN DE WETTE FAYS,Caluire-et-Cuire,69034.0,1,4.85805485397,45.789672649424
1680,Les Fraisiers,"78:A,JD261:R",True,False,False,1 ROUTE DU MILLENAIRE,Saint-Genis-Laval,69204.0,1,4.787645901601,45.673299276652
47448,Marius Poncet,"72:A,JD163:A,JD675:R",False,False,False,21 RUE LOUIS PRADEL,Saint-Genis-les-Ollières,69205.0,1,4.736790008406,45.75832403151
47450,Colombier-Saugn. Salines,"C201:R,JD19:A,JD25:A,JD252:A",False,False,False,999 ROUTE DE CREMIEU,Colombier-Saugnieu,69299.0,2,5.129557043978,45.714767961581
47452,La Voûte,"2:R,20:R,22:R,23:R,71:R,S11:R",False,False,False,57 RUE DE SAINT CYR,Lyon 9e Arrondissement,69389.0,1,4.807986991873,45.783925977494
47491,Collège Ch. Bernardin,"C20:A,C20E:A,JD975:R",True,False,False,24 RUE GRANDE RUE,Francheville,69089.0,1,4.774935954751,45.740868956321
47492,Chauderasses,"C20:A,C20E:A,JD975:R",True,False,False,155 RUE COMMANDANT CHARCOT,Sainte-Foy-lès-Lyon,69202.0,1,4.780943022437,45.74448200874
47493,Clinique Charcot,"C20:R,C20E:R,JD975:A",True,False,False,49 RUE COMMANDANT CHARCOT,Sainte-Foy-lès-Lyon,69202.0,1,4.797607017799,45.750163035801
47494,Clinique Charcot,"C20:A,C20E:A,JD975:R",True,False,False,96 RUE COMMANDANT CHARCOT,Lyon 5e Arrondissement,69385.0,1,4.797479038056,45.750182043262
23599,Gare d'Oullins,"165:A,165:R,245:A,245:R",True,,,,,,1,4.81404,45.71633
23600,Col. Lycée St-Th.d'Aquin,"JD745:R,JD745:A,JD746:R,JD750:R,JD750:A,JD751:R,JD752:A,JD752:R",False,,,,,,1,4.809335,45.71113
47495,Corbas Gabriel Péri,"87:A,ZI1:A",True,False,False,5 RUE DES ALLOBROGES,Corbas,69273.0,1,4.917072046035,45.676749023114
47496,Corbas Gabriel Péri,"87:R,ZI1:R",True,False,False,4 RUE DES ALLOBROGES,Corbas,69273.0,1,4.917268054866,45.676986019868
10451,Dardilly Peupliers,"3:R,89:R,89D:R,GE4:A,JD171:R,JD33:R,JD841:R",True,False,False,32 CHEMIN DES PEUPLIERS,Dardilly,69072.0,1,4.758498821699,45.81345641976
15128,Cogny Le Bourg,JD451:A,,,,,,,4,4.625688,45.988446
47497,Pl Sublet - Marcel Paul,"C12:R,JD221:R",True,False,False,13 AVENUE MARCEL PAUL,Vénissieux,69259.0,1,4.881673031947,45.700044960708
11442,Garibaldi - Duquesne,38:R,True,False,False,16 RUE GARIBALDI,Lyon 6e Arrondissement,69386.0,1,4.849800988313,45.772647070828
11444,Garibaldi - Gambetta,C7:A,True,False,False,302 RUE GARIBALDI,Lyon 7e Arrondissement,69387.0,1,4.853556118799,45.75128269723
47498,Pl Sublet - Marcel Paul,"C12:A,JD221:A",True,False,False,21 AVENUE MARCEL PAUL,Vénissieux,69259.0,1,4.88200103174,45.699389961028
47499,HLM République,C12:R,True,False,False,16 AVENUE DE LA REPUBLIQUE,Vénissieux,69259.0,1,4.870962946353,45.707184999027
475,Chemin des Pivolles,52:A,True,False,False,111 RUE ALEXANDRE DUMAS,Vaulx-en-Velin,69256.0,1,4.934109993429,45.753165988968
47503,Benoit Bernard,"C12:R,PL3:A",False,False,False,99 ROUTE DE VIENNE,Lyon 8e Arrondissement,69388.0,1,4.852264968651,45.738272011337
47504,Corbas G.Brassens,54:A,False,False,False,0 CHEMIN DE GRANGE BLANCHE,Corbas,69273.0,1,4.905356952553,45.667713959467
47505,La Perralière,"C23:R,C26:R,JD977:A,JD977:R",True,False,False,84 RUE DU 1 MARS 1943,Villeurbanne,69266.0,1,4.889417041669,45.763682020628
47506,La Perralière,"C23:A,C26:A",True,False,False,86 RUE DU 1 MARS 1943,Villeurbanne,69266.0,1,4.889282969362,45.76320403127
47509,Corneille,"52:A,68:A,ZI5:A",True,False,False,96 AVENUE ROGER SALENGRO,Vaulx-en-Velin,69256.0,1,4.928248027156,45.755246980463
47510,Corneille,"52:R,68:R,ZI5:R",True,False,False,94 AVENUE ROGER SALENGRO,Vaulx-en-Velin,69256.0,1,4.928355944837,45.755657031816
47511,La Rochère,78:R,True,False,False,96 RUE PIERRE SEMARD,Grigny-sur-Rhône,69096.0,2,4.793949947701,45.610106959768
11452,St Germain Pain Béni,"21:A,96:A,96:R",True,False,False,12 AVENUE DE LA PAIX,Saint-Germain-au-Mont-d'Or,69207.0,2,4.799547045312,45.883778022839
11504,Sans Souci,69:R,True,False,False,12 RUE SAINT THEODORE,Lyon 3e Arrondissement,69383.0,1,4.863543023622,45.748387016318
11515,Vaulx Les Grolières,"37:R,52:A,7:R,C3:R",True,False,False,2 RUE LOUIS MICHOY,Vaulx-en-Velin,69256.0,1,4.910386664738,45.787513688832
1155,Henri Gorjus,"2:A,C18:R,JD61:A,JD62:A,JD63:A",True,False,False,74 RUE HENON,Lyon 4e Arrondissement,69384.0,1,4.823772925901,45.779608377025
11628,Georges Levy,35:A,True,False,False,162 AVENUE FRANCIS DE PRESSENSE,Vénissieux,69259.0,1,4.868019436421,45.719931063033
11629,Georges Levy,35:R,True,False,False,145 AVENUE FRANCIS DE PRESSENSE,Vénissieux,69259.0,1,4.868095001685,45.720001008565
117,Baraillon,"5:R,72:R,98:R,JD678:A",True,False,False,63 AVENUE DU 11 NOVEMBRE 1918,Tassin-la-Demi-Lune,69244.0,1,4.759940291963,45.764117820051
11713,Boutasse - C. Rousset,"C17:R,JD971:R",True,False,False,3 RUE DU PROGRES,Bron,69029.0,1,4.903881906425,45.734454672719
11715,Avenue des Avoraux,"82:R,84:R,JD185:A,JD244:R,JD244:A,R2:R",False,False,False,162 ROUTE DES MONTS D OR,Curis-au-Mont-d'Or,69071.0,1,4.829316955653,45.875191974651
11717,Francheville Doulline,"C20:A,C20E:A,JD211:R",True,False,False,24 RUE DE L EGLISE,Francheville,69089.0,1,4.761640697354,45.737636262255
47538,Mendès France - Alsace,93:R,True,False,False,50 AVENUE PIERRE MENDES FRANCE,Saint-Priest,69290.0,1,4.909899010537,45.718329968923
23677,Barolles Gendarmerie,"165:R,214:R,220:R,245:R,JD745:R,JD755:R,JD756:R",True,,,,,,1,4.785721,45.686416
24950,Montromant - Le Creux,JD560:A,,,,,,,3,4.5192,45.7205
10459,Montée de la Boucle,38:A,True,False,False,19 MONTEE DE LA BOUCLE,Caluire-et-Cuire,69034.0,1,4.838956228256,45.781944519756
1046,Génovéfains,"55:R,C20:R,C21:R",True,False,False,151 CHEMIN DE CHOULANS,Lyon 5e Arrondissement,69385.0,1,4.816141992036,45.753575005537
47563,J. B. Simon,40:R,True,False,False,30 QUAI JEAN BAPTISTE SIMON,Fontaines-sur-Saône,69088.0,1,4.857655027638,45.825808043042
47564,Valdo,65:A,True,False,False,104 RUE PIERRE VALDO,Lyon 5e Arrondissement,69385.0,1,4.784770965809,45.750148006759
47565,Duchère Château,"66:R,C14:R",True,False,False,248 BOULEVARD DE LA DUCHERE,Lyon 9e Arrondissement,69389.0,1,4.794122993467,45.780936001374
47623,Calmette - Mûriers,ZI5:R,False,False,False,12 RUE CALMETTE,Genas,69277.0,2,4.987813056798,45.716822040584
47624,Genas Salengro,"JD941:R,JD943:R",False,False,False,12 RUE ROGER SALENGRO,Genas,69277.0,2,4.989302959992,45.729943007774
47625,Genas Salengro,"C200:A,JD941:A,JD943:A",False,False,False,12 RUE ROGER SALENGRO,Genas,69277.0,2,4.98966096552,45.730125021844
47636,Chaponost Le Devais,12:A,False,False,False,88 DEPARTEMEN 50,Chaponost,69043.0,2,4.775873018224,45.724041035215
47637,Chaponost Le Devais,12:R,False,False,False,88 DEPARTEMEN 50,Chaponost,69043.0,2,4.776011953896,45.723994990181
47639,Allende - Egalité,C8:R,False,False,False,10 AVENUE SALVADOR ALLENDE,Vaulx-en-Velin,69256.0,1,4.923986996085,45.780722979242
46077,Sathonay Gare,"JD73:R,JD79:R",False,,,,,,1,4.876470963795,45.821815044426
46177,Collège Jean Renoir,"JD72:R,JD73:R",False,,,,,,1,4.845761064025,45.869431017531
46248,Clos Jouve,"JD200:R,JD200:A,JD204:A,JD204:R,JD207:A,JD207:R,JD208:A,JD208:R",False,,,,,,1,4.820226038982,45.772633962795
46252,Parking Aquarium,"JD11:R,JD16:R",False,,,,,,1,4.81597099428,45.728215968134
46456,Villette,"JD126:R,JD127:R,JD129:R,JD25:R",False,,,,,,2,5.056443017499,45.760684000632
478,Chemin du Chêne,"20:A,22:A,JD204:R,JD57:R",True,False,False,13 AVENUE GABRIEL PERI,Saint-Didier-au-Mont-d'Or,69194.0,1,4.794454984909,45.824137126957
15382,Charretiers,"JD456:R,JD456:A",,,,,,,4,4.703539,45.969102
15002,Collège Maurice Utrillo,"151:A,154:R,JD456:R,JD456:A,JD457:A,JD457:R,JD481:A,JD481:R",True,,,,,,4,4.701184,45.980238
15285,Villefranche Médiathèque,"152:A,153:R,154:R,JD453:A,JD454:A,JD455:A",True,,,,,,4,4.721246,45.987482
15227,Lacote,"154:A,155:A",True,,,,,,4,4.717999,45.983311
15361,Rue de Belleville,152:R,True,,,,,,4,4.719438,45.999373
15379,Savigny - Centre commercial,155:A,True,,,,,,4,4.711821,45.979708
47812,St Priest Les Roses,62:R,False,False,False,26 BOULEVARD DES ROSES,Saint-Priest,69290.0,1,4.939342016831,45.68685700006
10460,Montée de la Boucle,"38:R,PL2:R",False,False,False,20TER MONTEE DE LA BOUCLE,Lyon 4e Arrondissement,69384.0,1,4.838637795079,45.782014622279
10474,Girondins - Yves Farge,34:R,True,False,False,80 BOULEVARD YVES FARGE,Lyon 7e Arrondissement,69387.0,1,4.831071954862,45.739504009089
10475,Girondins - Yves Farge,34:A,True,False,False,80 BOULEVARD YVES FARGE,Lyon 7e Arrondissement,69387.0,1,4.83073597065,45.739394370031
10476,Halle Tony Garnier,"34:A,BR60:A",True,False,False,2 AVENUE DEBOURG,Lyon 7e Arrondissement,69387.0,1,4.826431987401,45.731622985401
10477,Halle Tony Garnier,"34:R,BR60:R",True,False,False,5 AVENUE DEBOURG,Lyon 7e Arrondissement,69387.0,1,4.826221591943,45.731685710692
10478,Sept Chemins,"79:R,C200:A",True,False,False,264 AVENUE FRANKLIN ROOSEVELT,Vaulx-en-Velin,69256.0,1,4.932535433188,45.744840470071
10484,Vaulx O'Hara,"37:A,57:A",True,False,False,20 AVENUE MARCEL CACHIN,Vaulx-en-Velin,69256.0,1,4.9365049778,45.783410580627
10485,Vaulx O'Hara,57:R,False,False,False,20 AVENUE MARCEL CACHIN,Vaulx-en-Velin,69256.0,1,4.936825420152,45.783385159761
10486,Cachin - De Gaulle,57:A,False,False,False,164 AVENUE MARCEL CACHIN,Vaulx-en-Velin,69256.0,1,4.939889310885,45.783152160958
24953,Montromant - Le Mirton,"JD559:R,JD560:R",,,,,,,3,4.5215,45.706
47815,Meyzieu Salle des Fêtes,"67:A,JD122:A",True,False,False,3 ALLEE JOANNES GONON,Meyzieu,69282.0,1,5.001252049525,45.766462990016
46943,Fortunat - Indiennerie,JD58:A,False,,,,,,1,4.809665066369,45.807498009475
190,Paul Berliet,"C25:R,T36:R",True,False,False,99 ROUTE DE LYON,Saint-Priest,69290.0,1,4.9119323036,45.705141443741
46945,Fortunat - Indiennerie,JD58:R,False,,,,,,1,4.809541970324,45.807576958564
15068,Le Fond de Blacé,"JD453:A,JD495:R,JD495:A",,,,,,,4,4.659607,46.033025
15069,Le Fond de Blacé,"JD453:R,JD495:A,JD495:R",,,,,,,4,4.659603,46.032958
30014,Le Monteillier,"20:A,23:R,JD185:A,JD204:R,JD57:R,JD696:A,JD973:A",True,False,False,5 CHEMIN DU MONTEILLIER,Saint-Didier-au-Mont-d'Or,69194.0,1,4.806527010492,45.817092005669
15133,Le Duchamp,JD452:R,,,,,,,4,4.598353,45.986204
30018,La Piemente,"21:R,61:R,89:R,C6:R",True,False,False,307 BOULEVARD DE BALMONT,Lyon 9e Arrondissement,69389.0,1,4.800630876815,45.785366101664
30368,Léon Bérard,"24:A,34:R",True,False,False,28 PROMENADE LEA ET NAPOLEON BULLUKIAN,Lyon 8e Arrondissement,69388.0,1,4.879255008397,45.741388035425
30380,Saint-Agnan,"C25:R,PL1:A",True,False,False,89 RUE MARIUS BERLIET,Lyon 8e Arrondissement,69388.0,1,4.863031119567,45.740881529549
30383,Square Jussieu,JD972:A,True,False,False,1 QUAI VICTOR AUGAGNEUR,Lyon 3e Arrondissement,69383.0,1,4.841361931113,45.76330325109
15134,Les Meules,JD451:A,,,,,,,4,4.631355,45.986741
15144,Vauzelle,JD452:A,,,,,,,4,4.616089,45.983573
30387,Avenue du Plateau,"66:R,C14:R,S11:A",True,False,False,220 AVENUE DU PLATEAU,Lyon 9e Arrondissement,69389.0,1,4.794740950173,45.784206990508
3133,Villeneuve,S15:A,True,False,False,9 ROUTE DE CHAMPAGNE,Écully,69081.0,1,4.783004999502,45.78568599063
15151,Chevennes,JD450:R,,,,,,,4,4.63142,46.009418
15123,Chervinges - Croix,JD457:R,True,,,,,,4,4.688116,45.982095
15118,Chervinges - Centre,JD457:A,True,,,,,,4,4.682145,45.982131
15119,Chervinges - Centre,JD457:R,True,,,,,,4,4.682274,45.982344
3136,Gare d'Albigny-Neuville,"43:A,JD70:A,JD813:R",True,False,False,1 QUAI GENERAL DE GAULLE,Albigny-sur-Saône,69003.0,1,4.835481917163,45.87648176107
31863,Les Six Noyers,76:A,True,False,False,102 RUE SULLY,Décines-Charpieu,69275.0,1,4.97510162141,45.763012694949
31864,Condorcet,69:A,True,False,False,15 AVENUE CONDORCET,Villeurbanne,69266.0,1,4.867023066307,45.777931218395
10487,Cachin - De Gaulle,57:R,False,False,False,164 AVENUE MARCEL CACHIN,Vaulx-en-Velin,69256.0,1,4.94082799903,45.783250033446
10488,Pont de Décines,57:A,True,False,False,31 ROUTE DE VAULX,Décines-Charpieu,69275.0,1,4.949881133771,45.777906192655
10489,Pont de Décines,57:R,True,False,False,25 ROUTE DE VAULX,Décines-Charpieu,69275.0,1,4.95022295634,45.777790038238
10490,Emile Bertrand,57:A,True,False,False,33 RUE DE LA FRATERNITE,Décines-Charpieu,69275.0,1,4.957203995284,45.772028475853
10496,Vaulx Z.I. Est,57:A,False,False,False,300 AVENUE MARCEL CACHIN,Vaulx-en-Velin,69256.0,1,4.944180946701,45.781548972517
10497,Vaulx Z.I. Est,57:R,True,False,False,295 AVENUE MARCEL CACHIN,Vaulx-en-Velin,69256.0,1,4.944869960446,45.781225027061
10501,Dumas - Salengro,52:R,False,False,False,77BIS RUE ALEXANDRE DUMAS,Vaulx-en-Velin,69256.0,1,4.929071043818,45.753594010445
10945,Cordeliers,"A32:A,A71:A,C23:A,JD972:R",True,False,False,23B QUAI JEAN MOULIN,Lyon 2e Arrondissement,69382.0,1,4.838479033692,45.764000040677
10946,Pont Churchill RD,"59:R,9:R,A32:R,A71:R,C23:R,PL1:R,PL2:R",True,False,False,37 COURS D HERBOUVILLE,Lyon 4e Arrondissement,69384.0,1,4.84085593677,45.778742729483
10947,Pont Churchill RD,"A32:A,A71:A,C23:A",True,False,False,38 COURS D HERBOUVILLE,Lyon 4e Arrondissement,69384.0,1,4.841224960514,45.778784008214
12045,Gare de Vaise-G.Collomb,"10:R,10E:R,2:R,20:R,21:R,22:R,23:R,31:R,40:R,43:R,61:R,71:R,84:R,89:R,89D:R,C14:R,C14:A,S11:R",True,False,False,12 RUE DU 24 MARS 1852,Lyon 9e Arrondissement,69389.0,1,4.805233229194,45.780989501854
3194,Z.I. Meyzieu Restaurant,ZI2:R,True,False,False,19 AVENUE DU MARECHAL DE LATTRE DE TASSIGNY,Meyzieu,69282.0,1,5.027260044243,45.774195993683
3197,ZI Schweitzer - Meyzieu,67:A,False,False,False,5 AVENUE DOCTEUR SCHWEITZER,Meyzieu,69282.0,1,5.028831002526,45.765873992504
15305,Ouilly-le-Loup,153:A,True,,,,,,4,4.697567,46.001908
47866,Le Prainet,"16:R,JD137:A",False,False,False,80 RUE DE L EGALITE,Décines-Charpieu,69275.0,1,4.966082059489,45.765180991316
47868,Croizat - Paul Bert,35:A,False,False,False,30 RUE PAUL BERT,Vénissieux,69259.0,1,4.888080026884,45.700652984248
47869,Ramboz Bitumes,"64:R,64:A",False,False,False,1 AVENUE ALBERT RAMBOZ,Feyzin,69276.0,1,4.846192977243,45.679748983346
15314,Gleizé Pavillons,153:R,True,,,,,,4,4.699918,46.001983
15315,Gleizé Pavillons,153:A,True,,,,,,4,4.700493,46.001835
15329,Petit Gleizé,"JD457:R,JD457:A",,,,,,,4,4.664784,45.986373
15391,Signeret,"JD457:R,JD457:A",,,,,,,4,4.670007,45.987229
15061,Beaurivage,"151:R,JD458:A",True,,,,,,4,4.754005,45.98559
47870,Ampère,"71:R,JD56:A",False,False,False,4 RUE DE LA REPUBLIQUE,Collonges-au-Mont-d'Or,69063.0,1,4.838442001006,45.816720987774
47871,Le Molard,79:A,False,False,False,300 AVENUE JEAN JAURES,Décines-Charpieu,69275.0,1,4.966096986312,45.771333964179
47872,Marc-Antoine Petit,S1:A,False,False,False,6 RUE QUIVOGNE,Lyon 2e Arrondissement,69382.0,1,4.825560016302,45.745594971714
10502,Dumas - Salengro,"68:R,ZI5:R",False,False,False,138 AVENUE ROGER SALENGRO,Vaulx-en-Velin,69256.0,1,4.927933282301,45.752769179133
10515,Sergent Berthet,"19:R,45:R,PL3:A",True,False,False,36 RUE SERGENT MICHEL BERTHET,Lyon 9e Arrondissement,69389.0,1,4.805544149065,45.771009386028
10518,Demi-Lune Victor Hugo,5:R,False,False,False,49 AVENUE VICTOR HUGO,Tassin-la-Demi-Lune,69244.0,1,4.784094942112,45.766204253772
10520,Pont Kitchener R.G.,"31:R,46:R,49:R,55:R,63:R,8:R,C19:R,C21:R",True,False,False,2 COURS DE VERDUN RAMBAUD,Lyon 2e Arrondissement,69382.0,1,4.823812142363,45.750326573363
10524,1ère D.F.L.,C19:A,True,False,False,10 AVENUE DEBROUSSE,Lyon 5e Arrondissement,69385.0,1,4.81414609549,45.750387292669
11090,Caluire H. de V. Radiant,"33:R,38:R,JD206:A,JD63:A,S5:R",True,False,False,62 RUE FRANCOIS PEISSEL,Caluire-et-Cuire,69034.0,1,4.843219733035,45.797016663695
11099,Lycée Branly,90:A,True,False,False,2 RUE MERE ELISABETH RIVET,Lyon 5e Arrondissement,69385.0,1,4.792755969589,45.753094984526
11112,Les Régales,76:R,False,False,False,27 CHEMIN DE DECINES,Chassieu,69271.0,1,4.973476019012,45.749224183276
12163,Les Blés d'Or,87:R,True,False,False,27 RUE ALBERT FERRUS,Mions,69283.0,1,4.945267986604,45.667374702403
323,Mermoz - Californie,"C15:R,PL1:A",True,False,False,81 AVENUE JEAN MERMOZ,Lyon 8e Arrondissement,69388.0,1,4.878370982414,45.73358802342
32302,Bel Air - Les Brosses,C17:A,True,False,False,114 RUE FREDERIC FAYS,Villeurbanne,69266.0,1,4.90992933799,45.758224163599
32303,Bel Air - Les Brosses,C17:R,True,False,False,114 RUE FREDERIC FAYS,Villeurbanne,69266.0,1,4.909451934144,45.758190097117
32342,Frère Benoît,"45:A,90:A",True,False,False,70 RUE DE CHAMPVERT,Lyon 5e Arrondissement,69385.0,1,4.795244045819,45.763296375656
45804,Parilly,39:A,True,False,False,1 AVENUE JULES GUESDE,Vénissieux,69259.0,1,4.888140959686,45.719323960148
46371,St-P.de-Chandieu - Rajat,"30:A,JD195:A,JD254:R,JD28:A,JD4:A,T36:R",False,False,False,0 CHEMIN DU COMPAGNON,Saint-Pierre-de-Chandieu,69289.0,2,5.034270980813,45.641366011834
46372,St-P.de-Chandieu - Rajat,"30:R,JD195:R,JD254:A,JD28:R,JD4:R,T36:A",False,False,False,0 CHEMIN DU COMPAGNON,Saint-Pierre-de-Chandieu,69289.0,2,5.034538992232,45.641139013044
46391,12 juillet 1944,"30:A,JD254:R,JD28:A",False,False,False,27BIS RUE DU 12 JUILLET,Toussieu,69298.0,2,4.983598064088,45.660422989617
46395,Toussieu Les Tilleuls,"30:A,JD254:R,JD28:A,JD4:A,JD936:R",False,False,False,28 ROUTE DE CHANDIEU,Toussieu,69298.0,2,4.991167052679,45.652121022366
46396,Toussieu Les Tilleuls,"30:R,JD195:A,JD195:R,JD254:A,JD28:R,JD4:R,JD936:A",False,False,False,28 ROUTE DE CHANDIEU,Toussieu,69298.0,2,4.991138973402,45.652118987043
47873,Z.I. Terray - Schweitzer,ZI2:R,False,False,False,13 AVENUE LIONEL TERRAY,Meyzieu,69282.0,1,5.029637938991,45.770246983104
47950,Ste Foy Centre,JD978:R,False,False,False,2 CHEMIN DE LA CROIX PIVORT,Sainte-Foy-lès-Lyon,69202.0,1,4.803629965797,45.733260965586
47956,Pont Kitchener R.G.,"31:A,46:A,49:A,55:A,8:A,C19:A,C21:A",False,False,False,1 COURS DE VERDUN GENSOUL,Lyon 2e Arrondissement,69382.0,1,4.824257041201,45.750859037448
46397,Colombier-Saugn. Salines,"C201:A,JD19:R,JD25:R,JD252:R",False,False,False,9999 ROUTE DE CREMIEU,Colombier-Saugnieu,69299.0,2,5.127552961397,45.715280019644
46398,Place de Cholet,"C201:A,C201:R,JD126:R,JD126:A,JD19:A,JD19:R,JD25:A,JD25:R,JD252:A,JD252:R,JD27:A,JD27:R,JD931:A,JD931:R,JD963:R,JD963:A",False,False,False,4 PLACE DE CHOLET,Colombier-Saugnieu,69299.0,2,5.106886046068,45.724986012454
23743,Soucieu-en-Jarrest Le Stade,JD744:R,False,,,,,,2,4.694577,45.6778
48026,Cité Scolaire Inter. Z3,"JD975:R,JD982:R",False,False,False,0 RUE JONAS SALK,Lyon 7e Arrondissement,69387.0,1,4.822759958713,45.727743973022
48027,Rochecardon,"2:R,20:R,22:R,23:R,71:R",False,False,False,120 RUE DE SAINT CYR,Lyon 9e Arrondissement,69389.0,1,4.808353974475,45.788168979751
48032,Pelloutier,87:R,False,False,False,19 RUE FERNAND PELLOUTIER,Vénissieux,69259.0,1,4.902549059367,45.687730017474
48033,Filature,69:R,False,False,False,40 RUE CHATEAU GAILLARD,Villeurbanne,69266.0,1,4.884905038017,45.777537001368
48034,Filature,69:A,False,False,False,41 RUE CHATEAU GAILLARD,Villeurbanne,69266.0,1,4.884841044503,45.77761901627
48036,Verdun - Paul Cézanne,57:R,False,False,False,23 RUE DE VERDUN,Décines-Charpieu,69275.0,1,4.967338947647,45.764515037394
15062,Beaurivage,"151:A,JD458:R",True,,,,,,4,4.753856,45.985423
15088,Jassans Bruyère,JD458:A,,,,,,,4,4.767944,45.9749
15100,Cariattes,"JD458:R,JD458:A",True,,,,,,4,4.756684,45.976038
15230,Jassans Liberté,JD458:R,,,,,,,4,4.765272,45.984316
15222,Jassans Centre,151:A,True,,,,,,4,4.758635,45.982924
15281,Gléteins Mairie,JD458:A,True,,,,,,4,4.756018,45.991219
10526,4 Chemins - La Salette,"C20:R,C20E:R,JD975:A",True,False,False,57 RUE COMMANDANT CHARCOT,Lyon 5e Arrondissement,69385.0,1,4.796085953516,45.749741995014
10528,Belle Croix,"21:A,JD186:R,JD35:R",False,False,False,484 ROUTE DE BELLEVUE,Limonest,69116.0,1,4.769942965183,45.843007963618
10529,Belle Croix,"21:R,JD186:A,JD35:A",False,False,False,484 ROUTE DE BELLEVUE,Limonest,69116.0,1,4.769711030955,45.843048986599
10917,Z.I. Jacquard,43:A,True,False,False,203 RUE JACQUARD,Genay,69278.0,2,4.816670133461,45.888248623507
10919,Les Lilas,"43:A,JD243:A,JD78:R",True,False,False,91 CHEMIN DE CHAMP FLEURI,Genay,69278.0,2,4.830749954046,45.892817018156
10933,Grosso - Roosevelt,"16:A,ZI3:R",True,False,False,23 RUE MARIUS GROSSO,Vaulx-en-Velin,69256.0,1,4.936213946894,45.763468969491
11037,Jules Verne,"131:A,50:R",False,False,False,70 RUE JULES VERNE,Saint-Priest,69290.0,1,4.974194454821,45.70225432624
11038,Boris Vian,"50:A,JD253:A",True,False,False,96 RUE DU GRISARD,Saint-Priest,69290.0,1,4.962854868633,45.696957406523
11058,Croix-Rousse,"2:R,33:R,45:R,C13:A,C18:R,PL2:A",True,False,False,156 BOULEVARD DE LA CROIX ROUSSE,Lyon 1er Arrondissement,69381.0,1,4.831960850079,45.774359063454
11305,Surville Route de Vienne,C12:R,True,False,False,365 ROUTE DE VIENNE,Vénissieux,69259.0,1,4.854631942701,45.718306040905
11323,Parilly,"C25:R,T36:R",True,False,False,1 AVENUE JULES GUESDE,Vénissieux,69259.0,1,4.887650054835,45.719001981829
48043,Simone de Beauvoir,C7:A,True,False,False,59 RUE DES GIRONDINS,Lyon 7e Arrondissement,69387.0,1,4.834707991524,45.738059996594
48044,Simone de Beauvoir,C7:R,True,False,False,66 RUE DES GIRONDINS,Lyon 7e Arrondissement,69387.0,1,4.834349008067,45.738112002049
48045,Girondins - Yves Farge,C7:A,True,False,False,42 RUE DES GIRONDINS,Lyon 7e Arrondissement,69387.0,1,4.831101941474,45.738844004458
48055,Verlaine - Racine,69:A,False,False,False,95 RUE RACINE,Villeurbanne,69266.0,1,4.878269979837,45.763149971301
48056,Verlaine - Racine,69:R,False,False,False,90 RUE RACINE,Villeurbanne,69266.0,1,4.87817503217,45.762920964353
48059,Lycées Aragon-Picasso,"81:A,81:R",False,False,False,61 RUE DU DOCTEUR ROUX,Givors,69091.0,2,4.759984968258,45.603907021941
11331,Vénissieux Emile Zola,93:A,False,False,False,26 RUE EMILE ZOLA,Vénissieux,69259.0,1,4.886624298486,45.702947232078
46411,Engrives,"C201:A,JD19:R,JD251:R,JD963:A,JD965:A",False,False,False,6 ROUTE NATIONALE 6,Saint-Bonnet-de-Mure,69287.0,2,5.034280046301,45.691627024223
46412,Engrives,"C201:R,JD19:A,JD251:A,JD964:R,JD965:R",False,False,False,9 ROUTE NATIONALE 6,Saint-Bonnet-de-Mure,69287.0,2,5.034303946626,45.691559024942
46413,St-Bonnet Centre,"C201:A,JD19:R,JD25:R,JD251:R,JD963:A,JD965:A",False,False,False,26 DEPARTEMEN 306,Saint-Bonnet-de-Mure,69287.0,2,5.031245964212,45.692545974089
46424,Route de Givors,T36:A,False,False,False,3 ROUTE DE GIVORS,Saint-Pierre-de-Chandieu,69289.0,2,4.985014050421,45.649603024785
46426,Idoux,81:A,True,False,False,31 RUE EDOUARD IDOUX,Givors,69091.0,2,4.762940028839,45.591830983727
48101,Z.A. Chapotin,54:A,False,False,False,85 AVENUE DE CHAPONNAY,Chaponnay,69270.0,2,4.926669983651,45.649238979506
48132,Cailloux Centre,"77:A,JD73:A,JD73:R",False,False,False,675 CHEMIN DU FOUR,Cailloux-sur-Fontaines,69033.0,1,4.870528952163,45.856580033421
48135,Cailloux La Croix,"77:A,JD76:A,JD76:R",False,False,False,90 CHEMIN DU FOUR,Cailloux-sur-Fontaines,69033.0,1,4.864576015222,45.853333040034
48151,St-Genis-Laval Hôp. Sud,"88:A,88:R",False,False,False,165 CHEMIN DU GRAND REVOYET,Saint-Genis-Laval,69204.0,1,4.805098975277,45.700829004161
48152,St Genis Gadagne,"88:A,C10:R",True,False,False,21 AVENUE GEORGES CLEMENCEAU,Saint-Genis-Laval,69204.0,1,4.795657038376,45.70062100931
10531,Dupuy,21:R,False,False,False,29 CHEMIN DU TRONCHON,Champagne-au-Mont-d'Or,69040.0,1,4.777022018318,45.802199975553
48154,Jean Baptiste Perret,"JD815:A,JD815:R",False,False,False,36 ROUTE DE COLLONGES,Saint-Cyr-au-Mont-d'Or,69191.0,1,4.831173038163,45.816742043439
11426,St Germain Four à Chaux,"96:A,JD242:A",True,False,False,2 AVENUE DU 2EME SPAHIS,Saint-Germain-au-Mont-d'Or,69207.0,2,4.806173134209,45.889001527138
11427,St Germain Four à Chaux,"96:R,JD242:R",True,False,False,1 AVENUE JACQUES BREL,Saint-Germain-au-Mont-d'Or,69207.0,2,4.806322731926,45.888602188203
11428,St Germain Cités,"21:R,96:A,96:R",False,False,False,2 RUE GABRIEL CORDIER,Saint-Germain-au-Mont-d'Or,69207.0,2,4.800822043617,45.88929704423
11429,La Poype,"97:A,97:R",False,False,False,675 RUE CENTRALE,Montanay,69284.0,1,4.862763773043,45.880958381684
1143,Hauts de Solaize,"GE2:A,JD909:R,JD909:A",False,False,False,272 RUE DU 11 NOVEMBRE 1918,Solaize,69296.0,2,4.84217045166,45.645531562761
11430,Les Roses,97:A,True,False,False,696 RUE DE NEUVILLE,Montanay,69284.0,1,4.853080989581,45.879522045413
11431,Les Roses,97:R,True,False,False,696 RUE DE NEUVILLE,Montanay,69284.0,1,4.853720122548,45.879918845751
11477,Solaize Croix Rouge,"39:R,JD909:A,JD909:R",True,False,False,0 RUE DE LA CROIX ROUGE,Saint-Symphorien-d'Ozon,69291.0,2,4.853399027636,45.638906020698
48161,A. Paré-Laennec,"24:A,34:A",False,False,False,39 BOULEVARD AMBROISE PARE,Lyon 8e Arrondissement,69388.0,1,4.88369501318,45.736536968771
48163,Timbaud,ZI1:R,False,False,False,1 RUE PIERRE TIMBAUD,Vénissieux,69259.0,1,4.900971953233,45.691890984872
48164,Timbaud,ZI1:A,False,False,False,1 RUE PIERRE TIMBAUD,Vénissieux,69259.0,1,4.901151016636,45.691860965966
48166,Moulin d'Amont,67:R,False,False,False,42 ROUTE DE JONAGE,Décines-Charpieu,69275.0,1,4.981509963752,45.773536980425
48168,Rochetaillée Berges,"40:A,70:A",True,False,False,0 ROUTE DE LYON,Rochetaillée-sur-Saône,69168.0,1,4.837611973248,45.83641402753
48169,Rochetaillée Berges,"40:R,70:R",True,False,False,0 ROUTE DE LYON,Rochetaillée-sur-Saône,69168.0,1,4.8377580526,45.836251004262
11503,St Philippe,69:R,True,False,False,17 RUE DU DAUPHINE,Lyon 3e Arrondissement,69383.0,1,4.865119012016,45.751069034049
1376,La Favorite,"46:R,C20:A",True,False,False,15 AVENUE DU POINT DU JOUR,Lyon 5e Arrondissement,69385.0,1,4.806620502553,45.756025813365
1383,La Folie,"59:R,C5:R,JD62:A",True,False,False,987 ROUTE DE STRASBOURG,Rillieux-la-Pape,69286.0,1,4.881160062808,45.808096957956
46435,Centre Social Sauvegarde,"C6:A,PL3:A",True,False,False,AVENUE ROSA PARKS,Lyon 9e Arrondissement,69389.0,1,4.791967184928,45.78668994552
46523,Bifurcation du Rosay,"2:R,20:R,71:R",True,False,False,111 RUE DE SAINT CYR,Saint-Didier-au-Mont-d'Or,69194.0,1,4.809071052878,45.792147026266
47083,Domer - Garibaldi,C7:R,True,False,False,40 RUE DOMER,Lyon 7e Arrondissement,69387.0,1,4.850582636822,45.747712173561
47084,Manufacture Montluc,69:R,False,False,False,3 COURS ALBERT THOMAS,Lyon 3e Arrondissement,69383.0,1,4.861258064232,45.749059970211
47103,Les Bottières,"11:R,12:R,14:R",True,False,False,120 BOULEVARD EMILE ZOLA,Oullins-Pierre-Bénite,69149.0,1,4.793012993328,45.721540001766
47110,Pont Churchill RD,"59:A,9:A",True,False,False,1 COURS ARISTIDE BRIAND,Caluire-et-Cuire,69034.0,1,4.841421067693,45.779592991646
47112,Hôtel de Ville L. Pradel,"A32:R,A71:R,PL1:R,PL2:R",False,False,False,1 QUAI JEAN MOULIN,Lyon 1er Arrondissement,69381.0,1,4.837814047913,45.76829999596
47118,Part-Dieu Jules Favre,"C23:A,PL4:R,TB11:R",True,False,False,170 COURS LAFAYETTE,Lyon 6e Arrondissement,69386.0,1,4.856731024738,45.763721955527
47119,Charmettes,"27:A,C23:R,JD977:R,JD977:A,PL4:A,TB11:A",True,False,False,294 COURS LAFAYETTE,Lyon 3e Arrondissement,69383.0,1,4.867678023064,45.763759004316
11729,Décines Esplanade,"57:A,JD121:A,JD135:R,JD294:R,JD971:R",True,False,False,368 AVENUE JEAN JAURES,Décines-Charpieu,69275.0,1,4.974129986902,45.772543017601
11743,23 Août 1944,"JD133:R,T36:A",False,False,False,90 RUE DU 23 AOUT 1944,Mions,69283.0,1,4.951586368256,45.665517180375
11744,23 Août 1944,"JD133:A,T36:R",False,False,False,88 RUE DU 23 AOUT 1944,Mions,69283.0,1,4.951454043228,45.666032005621
11745,Mions Libération,T36:A,True,False,False,37 RUE DE LA LIBERATION,Mions,69283.0,1,4.953784948986,45.659024983212
11746,Mions Libération,T36:R,False,False,False,37 RUE DE LA LIBERATION,Mions,69283.0,1,4.953833043532,45.658697013819
11747,Mions Croix Rouge,T36:A,False,False,False,81 RUE DE LA LIBERATION,Mions,69283.0,1,4.95392396135,45.652638021292
11750,Place Jean Jaurès,64:R,True,False,False,41 RUE DE GERLAND,Lyon 7e Arrondissement,69387.0,1,4.840579335994,45.740178480428
11751,Place Jean Jaurès,64:A,True,False,False,45 RUE DE GERLAND,Lyon 7e Arrondissement,69387.0,1,4.840371725615,45.739571027602
47120,Bernaix,"C11:A,PL4:A,TB11:A",True,False,False,66BIS RUE LEON BLUM,Villeurbanne,69266.0,1,4.896579997307,45.759961019878
11753,Jean Vallier,64:A,True,False,False,140 RUE DE GERLAND,Lyon 7e Arrondissement,69387.0,1,4.83912399455,45.732641984327
11759,Domrémy - Lacassagne,"25:A,C13:R,C16:A",True,False,False,64 AVENUE LACASSAGNE,Lyon 3e Arrondissement,69383.0,1,4.8727772405,45.751238334555
11760,Roger Salengro,"26:A,C15:A,C17:A,PL1:R",True,False,False,116 RUE LIONEL TERRAY,Bron,69029.0,1,4.905545282676,45.726855376338
47121,Bernaix,"C11:R,PL4:R,TB11:R",True,False,False,66 RUE LEON BLUM,Villeurbanne,69266.0,1,4.896247004412,45.759948988526
47350,Casanova,"80:A,81:R,JD111:R",True,False,False,12 AVENUE DANIELLE CASANOVA,Givors,69091.0,2,4.767352049911,45.594477979481
47351,Casanova,"80:R,81:A",True,False,False,12 AVENUE DANIELLE CASANOVA,Givors,69091.0,2,4.766984056969,45.594386960712
47352,Givors Yves Farge,"80:R,81:A",True,False,False,55 RUE YVES FARGE,Givors,69091.0,2,4.764783960421,45.593208980146
47353,Cité SNCF Grigny,80:A,True,False,False,31 RUE FRANCIS DE PRESSENSE,Grigny-sur-Rhône,69096.0,2,4.776804012707,45.602073974044
47354,André Sabatier,80:A,False,False,False,67 RUE ANDRE SABATIER,Grigny-sur-Rhône,69096.0,2,4.773896032362,45.609584038085
47363,Charly Centre,"15E:R,78:R,JD261:A",True,False,False,102 RUE DES GOBINS,Charly,69046.0,2,4.793064973415,45.649871964304
11761,Roger Salengro,"26:R,C15:R,C17:R,PL1:A",True,False,False,112 RUE LIONEL TERRAY,Bron,69029.0,1,4.904987764905,45.72675111973
47364,Grigny La Colombe,"15E:A,78:A",True,False,False,18 RUE PIERRE SEMARD,Grigny-sur-Rhône,69096.0,2,4.799661940543,45.61613898695
